akaname,inspectionid,city,state,results,longitude,latitude,inspectiondate,risk,location,license,facilitytype,address,inspectiontype,dbaname,zip
SUNRISE GYROS INC.,1967112,CHICAGO,IL,Pass,-87.65378117,41.74659471,20161024,Risk 2 (Medium),(41.746594707551054 -87.65378117410792),1959206,Restaurant,8106 S RACINE AVE ,Complaint,SUNRISE GYROS INC.,60620
TAQUERIA LOS COMALES # 12,1967089,CHICAGO,IL,Pass,-87.72273813,41.7830976,20161024,Risk 1 (High),(41.78309760160854 -87.72273813015846),65987,Restaurant,6035 S PULASKI RD ,Complaint Re-Inspection,TAQUERIA LOS COMALES # 12,60629
RENALDI'S PIZZA,1967085,CHICAGO,IL,Pass,-87.64454293,41.93353571,20161024,Risk 1 (High),(41.933535705306504 -87.64454292702328),2252464,Restaurant,2827-2831 N BROADWAY ,Complaint Re-Inspection,RENALDI'S PIZZA,60657
J & J FISH,1967062,CHICAGO,IL,Pass,-87.76527467,41.88034981,20161024,Risk 1 (High),(41.88034981402218 -87.76527467412636),1300963,Restaurant,5608 W MADISON ST ,Complaint Re-Inspection,J & J FISH,60644
MCDONALDS,1967051,CHICAGO,IL,Pass,-87.68301753,41.75093166,20161024,Risk 2 (Medium),(41.75093165729936 -87.68301753189526),1979615,Restaurant,7832 S WESTERN AVE ,Complaint Re-Inspection,MCDONALDS,60620
MCDONALDS  #29307,1967057,CHICAGO,IL,Pass w/ Conditions,-87.70865698,41.90998202,20161024,Risk 2 (Medium),(41.90998202237547 -87.70865698199712),1595934,Restaurant,3241 W NORTH AVE ,Complaint,MCDONALDS  #29307,60647
PANERA BREAD,1951286,CHICAGO,IL,Pass,-87.62451427,41.88216417,20161024,Risk 1 (High),(41.88216416733022 -87.62451427362218),2129398,Restaurant,2 N MICHIGAN AVE ,Short Form Complaint,PANERA BREAD,60602
EFIE'S CANTEEN (TAXI/LIMO AREA),1967040,CHICAGO,IL,Pass,-87.91442844,42.0085364,20161024,Risk 1 (High),(42.008536400868735 -87.91442843927047),29570,Restaurant,11601 W TOUHY AVE ,Short Form Complaint,EFIE'S CANTEEN INC,60666
A & C DISTRIBUTORS,1967036,CHICAGO,IL,Pass,-87.72802873,41.89544131,20161024,Risk 3 (Low),(41.895441308057194 -87.7280287331472),2492798,Grocery Store,4048 W CHICAGO AVE ,License,A & C DISTRIBUTORS,60651
BURGER KING,1967043,CHICAGO,IL,Fail,-87.71579472,41.9957096,20161024,Risk 2 (Medium),(41.99570960302507 -87.71579472135495),2368736,Restaurant,6261-6265 N LINCOLN AVE ,Complaint,BURGER KING #215,60659
MAYFAIR RESTAURANT,1967029,CHICAGO,IL,Pass,-87.7403112,41.96799701,20161024,Risk 1 (High),(41.96799701111674 -87.74031120339558),2405183,Restaurant,4461 W Lawrence AVE ,Complaint,MAYFAIR RESTAURANT,60630
PICANTE TAQUERIA,1966991,CHICAGO,IL,Pass,-87.67798988,41.90328773,20161021,Risk 1 (High),(41.90328772732953 -87.67798988240148),1938696,Restaurant,2016 1/2 W DIVISION ST ,Complaint,PICANTE TAQUERIA,60622
SYMPHONY MIDWAY,1966968,CHICAGO,IL,Pass,-87.74312825,41.8119896,20161021,Risk 1 (High),(41.811989599987115 -87.74312824835363),2447171,Long Term Care,4437 S CICERO AVE ,License,SYMPHONY MIDWAY,60632
YUMMY YUMMY NOODLES INC.,1967022,CHICAGO,IL,Fail,-87.6320942,41.849954,20161021,Risk 1 (High),(41.84995400192252 -87.63209419559098),2495710,Restaurant,2334 S WENTWORTH AVE ,License,YUMMY YUMMY NOODLES INC.,60616
MARKET ON HOWARD LLC,1967000,CHICAGO,IL,Pass,-87.6728975,42.01844815,20161021,Risk 2 (Medium),(42.01844814876268 -87.67289749839928),2492710,Grocery Store,7519 N PAULINA ST ,License Re-Inspection,MARKET ON HOWARD LLC,60626
DOMINOS,1966997,CHICAGO,IL,Fail,-87.63936045,41.86627727,20161021,Risk 2 (Medium),(41.86627726994009 -87.63936045226205),2464564,Restaurant,1234 S CANAL ST ,Short Form Complaint,DOMINOS,60607
CASEY'S CORNER,1967002,CHICAGO,IL,Fail,-87.69848682,41.99746954,20161021,Risk 3 (Low),(41.997469544827794 -87.69848682019041),1444569,TAVERN,2733 W DEVON AVE ,Complaint,CASEY'S CORNER,60659
SINHA,1966993,CHICAGO,IL,Pass,-87.6774065,41.87884869,20161021,Risk 1 (High),(41.87884868861424 -87.67740650126738),1649129,Restaurant,2018 W ADAMS ST ,Complaint,SINHA LTD,60612
BETEUR 1 CHILDCARE,1955305,CHICAGO,IL,Pass,-87.64427943,41.76568914,20161021,Risk 1 (High),(41.76568914272864 -87.64427943294706),2215969,Daycare (2 - 6 Years),7045 S HALSTED ST ,License,BETEUR 1 CHILDCARE,60621
Jimmy Johns,1966959,CHICAGO,IL,Pass,-87.74791096,41.95391362,20161021,Risk 1 (High),(41.95391361936965 -87.7479109624453),2333431,Restaurant,4021 N MILWAUKEE AVE ,Suspected Food Poisoning Re-inspection,Jimmy Johns,60641
JOY YEE NOODLE SHOP,1966953,CHICAGO,IL,Pass,-87.63471471,41.85378847,20161021,Risk 1 (High),(41.85378847066135 -87.63471470519069),2008459,Restaurant,2139 S CHINA PL ,Complaint Re-Inspection,JOY YEE NOODLE SHOP,60616
BUILDING BLOCKS LEARNING ACADEMY,1955304,CHICAGO,IL,Pass,-87.65260541,41.768828,20161021,Risk 1 (High),(41.768827997910584 -87.65260540548795),2215883,Daycare (2 Years),1118 W 69TH ST ,License,BUILDING BLOCKS LEARNING ACADEMY,60621
RAM'S RESTAURANT,1966943,CHICAGO,IL,Pass,-87.67115535,41.850428,20161021,Risk 1 (High),(41.850428003029705 -87.67115535322796),2495786,Restaurant,2302 S BLUE ISLAND AVE ,License,RAM'S RESTAURANT,60608
NUTS N MORE,1966941,CHICAGO,IL,Fail,-87.76279897,41.99744277,20161021,Risk 2 (Medium),(41.99744276536437 -87.76279896972342),2495693,Grocery Store,5352 W DEVON AVE ,License,NUTS N MORE,60646
QUICK CONNECTION  (T1 B1),1966930,CHICAGO,IL,Pass,-87.91442844,42.0085364,20161021,Risk 3 (Low),(42.008536400868735 -87.91442843927047),34223,Grocery Store,11601 W TOUHY AVE ,Canvass,QUICK CONNECTION,60666
MAX'S TAKE OUT,1966887,CHICAGO,IL,Fail,-87.62699911,41.87960813,20161020,Risk 1 (High),(41.87960812540506 -87.6269991129734),11172,Restaurant,20 E ADAMS ST ,Complaint,MAX'S TAKE OUT,60603
TRANSPORTATION CENTER/SNACK SHOP,1966757,CHICAGO,IL,Pass,-87.91442844,42.0085364,20161019,Risk 2 (Medium),(42.008536400868735 -87.91442843927047),1909531,Restaurant,11601 W TOUHY AVE ,Canvass,TRANSPORTATION CENTER,60666
THE ANGRY CRAB,1966927,CHICAGO,IL,Fail,-87.69722674,41.98450761,20161021,Risk 1 (High),(41.98450761309772 -87.69722674280237),2379885,Restaurant,5665 N LINCOLN AVE ,Complaint Re-Inspection,THE ANGRY CRAB,60659
WEST LAWN FOODS,1966926,CHICAGO,IL,Pass,-87.72313003,41.78660841,20161021,Risk 1 (High),(41.786608409502335 -87.72313002889523),1591726,Grocery Store,5838 S PULASKI RD ,Complaint Re-Inspection,WEST LAWN FOODS,60629
THE P BERRY CAFE,1966923,CHICAGO,IL,Pass,-87.6174801,41.83195818,20161021,Risk 2 (Medium),(41.831958178116174 -87.61748009800107),2482916,Restaurant,3428 S DR MARTIN LUTHER KING JR DR ,License Re-Inspection,THE P BERRY CAFE,60616
A&T PANCAKE HOUSE,1966917,CHICAGO,IL,Pass,-87.6743699,42.01012437,20161021,Risk 1 (High),(42.01012437485032 -87.67436989898064),2293343,Restaurant,7036 N CLARK ST ,Complaint,A&T PANCAKE HOUSE,60626
BREAKFAST HOUSE RESTAURANT,1966916,CHICAGO,IL,Pass,-87.67214746,41.89101119,20161021,Risk 1 (High),(41.89101118647223 -87.67214745847454),2196316,Restaurant,1800 W GRAND AVE ,Short Form Complaint,BREAKFAST HOUSE RESTAURANT INC.,60622
QUICK CONNECT/CARRY OUT  (T2-E2),1966902,CHICAGO,IL,Pass,-87.91442844,42.0085364,20161020,Risk 3 (Low),(42.008536400868735 -87.91442843927047),1928324,Grocery Store,11601 W TOUHY AVE ,Canvass,E-2 QUICK CONNECT,60666
JERK PARADISE GRILLE,1966901,CHICAGO,IL,Pass,-87.64428597,41.75436101,20161020,Risk 1 (High),(41.754361010855725 -87.64428596725203),2464202,Restaurant,7660 S HALSTED ST ,License,JERK PARADISE GRILLE,60620
FARMER'S MARKET/T3 ROTUNDA,1966880,CHICAGO,IL,Pass,-87.91442844,42.0085364,20161020,Risk 3 (Low),(42.008536400868735 -87.91442843927047),2363755,Grocery Store,11601 W TOUHY AVE ,Canvass,FARMER'S MARKET,60666
HOOK & FISH,1955290,CHICAGO,IL,Out of Business,-87.66407894,41.80143854,20161017,Risk 2 (Medium),(41.801438543640344 -87.66407894491235),2349525,Restaurant,1542 W 51ST ST ,Canvass,HOOK & FISH,60609
KFC,1937437,CHICAGO,IL,No Entry,-87.65497266,41.96925666,20160623,Risk 2 (Medium),(41.969256657396244 -87.65497265731545),2189443,Restaurant,4804 N SHERIDAN RD ,Canvass,KFC,60640
FAIRPLAY FINER FOODS INC,1955302,CHICAGO,IL,Pass,-87.64570757,41.80962977,20161020,Risk 1 (High),(41.809629768022035 -87.64570756512876),10949,Grocery Store,4640 S HALSTED ST ,Complaint,FAIRPLAY FINER FOODS INC,60609
PARLOR PIZZA BAR,1966900,CHICAGO,IL,Pass,-87.67339734,41.90335951,20161020,Risk 1 (High),(41.90335951000414 -87.67339733788289),2437116,Restaurant,1824-1826 W DIVISION ST ,Complaint Re-Inspection,PARLOR PIZZA BAR,60622
CAFE TOLA II,1966898,CHICAGO,IL,Pass,-87.69806831,41.94267996,20161020,Risk 1 (High),(41.94267996160201 -87.69806831353777),2495714,Restaurant,3324 N CALIFORNIA AVE ,License Re-Inspection,CAFE TOLA II,60618
NORTH AVE RENTAILS LLC,1966894,CHICAGO,IL,Fail,-87.73452245,41.90966899,20161020,Risk 3 (Low),(41.909668990318984 -87.7345224450444),2493177,Grocery Store,4317 W NORTH AVE ,License,NORTH AVE RENTAILS LLC,60639
MYSORE WOODLANDS,1966885,CHICAGO,IL,Pass w/ Conditions,-87.69428407,41.99776535,20161020,Risk 1 (High),(41.9977653535896 -87.69428406894727),2229409,Restaurant,2548-2550 W DEVON AVE ,Short Form Complaint,MYSORE WOODLANDS,60659
SUBWAY,1966881,CHICAGO,IL,Pass,-87.69830277,41.95408332,20161020,Risk 1 (High),(41.954083317714684 -87.69830277007019),2488811,Restaurant,2800 W IRVING PARK RD ,Short Form Complaint,SUBWAY,60618
MCDONALD'S,1966776,CHICAGO,IL,Pass,-87.62291751,41.73625546,20161019,Risk 2 (Medium),(41.73625546179032 -87.62291750820594),2428106,Restaurant,29 E 87TH ST ,Short Form Complaint,MCDONALD'S,60619
SUBWAY,1966871,CHICAGO,IL,Pass,-87.63236505,41.8887416,20161020,Risk 1 (High),(41.88874160495607 -87.63236504957815),2488988,Restaurant,347 N LA SALLE ST ,License Re-Inspection,SUBWAY,60654
ALCOIRIS,1966870,CHICAGO,IL,Pass,-87.72689274,41.91705197,20161020,Risk 1 (High),(41.917051966932796 -87.72689273615504),30948,Restaurant,4007 W ARMITAGE AVE ,Complaint,ALCOIRIS INC,60639
A CHILD'S WORLD EARLY LEARNING,1966866,CHICAGO,IL,Pass,-87.57163518,41.7442799,20161020,Risk 1 (High),(41.74427989606148 -87.5716351762223),2215835,Daycare Above and Under 2 Years,2145 E 83RD ST ,License,A CHILD'S WORLD EARLY LEARNING,60617
HORIZON CAFE,1966867,CHICAGO,IL,Pass,-87.64946947,41.95139015,20161020,Risk 1 (High),(41.951390150873834 -87.64946946794332),1495171,Restaurant,3805 N BROADWAY ,Suspected Food Poisoning Re-inspection,HORIZON CAFE,60613
B MART,1966865,CHICAGO,IL,Fail,-87.72279202,41.96112041,20161020,Risk 3 (Low),(41.961120414100584 -87.72279201987668),2133654,Grocery Store,3756 W MONTROSE AVE ,Complaint,B MART,60618
WALGREENS,1966858,CHICAGO,IL,Pass,-87.74703214,41.92411902,20161020,Risk 3 (Low),(41.92411902417522 -87.74703213601244),2004365,Grocery Store,4817 W FULLERTON AVE ,License,WALGREENS # 09470,60639
COOK AU VIN,1966857,CHICAGO,IL,Fail,-87.67400667,41.92250794,20161020,Risk 1 (High),(41.92250793561497 -87.67400666675302),2253821,Bakery,2256 N ELSTON AVE ,Complaint,COOK AU VIN,60614
MCDONALDS,1966856,CHICAGO,IL,Fail,-87.68301753,41.75093166,20161020,Risk 2 (Medium),(41.75093165729936 -87.68301753189526),1979615,Restaurant,7832 S WESTERN AVE ,Complaint,MCDONALDS,60620
STARBUCKS  (T3 H2),1966847,CHICAGO,IL,Pass,-87.91442844,42.0085364,20161020,Risk 2 (Medium),(42.008536400868735 -87.91442843927047),34150,Restaurant,11601 W TOUHY AVE ,Canvass,HOST INTERNATIONAL INC,60666
UNIVERSITY OF CHICAGO-TIFFIN CAFE,1966850,CHICAGO,IL,Pass,-87.59084354,41.78796989,20161020,Risk 1 (High),(41.787969890663675 -87.59084353909033),2492429,CAFE/STORE,1414 E 59TH ST ,License,UNVERSITY OF CHICAGO-TIFFIN CAFE,60637
AMC THEATRES NAVY PIER IMAX,1966840,CHICAGO,IL,Not Ready,-87.61156988,41.89209414,20161020,empty,(41.892094136861786 -87.61156988394656),2492758,empty,600 E GRAND AVE ,License,AMC THEATRES NAVY PIER IMAX,60611
VERNON PARK TAP/TUFANO'S,1966842,CHICAGO,IL,Fail,-87.65403304,41.87290437,20161020,Risk 1 (High),(41.872904374521134 -87.65403303613473),1145420,Restaurant,1073 W VERNON PARK PL ,Complaint,VERNON PARK TAP,60607
THE GARDNER SCHOOL,1966839,CHICAGO,IL,Pass,-87.66036913,41.9335946,20161020,Risk 1 (High),(41.93359460097582 -87.66036913432342),2363473,Daycare Above and Under 2 Years,2850 N LINCOLN AVE ,License,THE GARDNER SCHOOL LINCOLN PARK,60657
WALGREEN #03948,1966835,CHICAGO,IL,Pass,-87.75561299,41.93152062,20161020,Risk 3 (Low),(41.931520622962296 -87.75561299208617),2004363,Grocery Store,5140 W DIVERSEY AVE ,License,WALGREEN #03948,60639
WALGREEN #03948,1966831,CHICAGO,IL,Pass,-87.75561299,41.93152062,20161020,Risk 3 (Low),(41.931520622962296 -87.75561299208617),18556,Grocery Store,5140 W DIVERSEY AVE ,Canvass,WALGREEN #03948,60639
VILLA PALERMO PIZZA,1966837,CHICAGO,IL,Fail,-87.68478486,41.99792642,20161020,Risk 1 (High),(41.99792641964382 -87.68478485824427),1470,Restaurant,2154 W DEVON AVE ,Complaint,VILLA PALERMO INC,60659
WALGREENS #4986,1966829,CHICAGO,IL,Pass,-87.74624148,41.93872475,20161020,Risk 3 (Low),(41.9387247499836 -87.74624148144949),2003480,Grocery Store,4745 W BELMONT AVE ,License,WALGREENS #4986,60641
FRESHII,1966820,CHICAGO,IL,Pass,-87.6326624,41.88887789,20161020,Risk 1 (High),(41.88887789027888 -87.63266239639773),2254325,Restaurant,350 N LA SALLE DR ,Complaint,FRESHII,60654
MARKET ON HOWARD LLC,1966827,CHICAGO,IL,Fail,-87.6728975,42.01844815,20161020,Risk 2 (Medium),(42.01844814876268 -87.67289749839928),2492710,Grocery Store,7519 N PAULINA ST ,License,MARKET ON HOWARD LLC,60626
WALGREENS #4986,1966816,CHICAGO,IL,Pass,-87.74624148,41.93872475,20161020,Risk 3 (Low),(41.9387247499836 -87.74624148144949),1193704,Grocery Store,4745 W BELMONT AVE ,Canvass,WALGREENS #4986,60641
STARBUCKS   T3 H-13,1966815,CHICAGO,IL,Pass,-87.91442844,42.0085364,20161020,Risk 2 (Medium),(42.008536400868735 -87.91442843927047),34228,Restaurant,11601 W TOUHY AVE ,Canvass,STARBUCKS,60666
SYMPHONY OF LINCOLN PARK,1966818,CHICAGO,IL,Pass,-87.66312244,41.92533056,20161020,Risk 1 (High),(41.925330555308214 -87.66312243534863),2446871,Long Term Care,1366 W FULLERTON AVE ,License Re-Inspection,SYMPHONY OF LINCOLN PARK,60614
GHAREEB NAWAZ RESTAURANT,1966811,CHICAGO,IL,Pass,-87.68142045,41.99798375,20161020,Risk 1 (High),(41.99798375025185 -87.68142044788961),2423912,Restaurant,2032-2034 W DEVON AVE,Complaint Re-Inspection,GHAREEB NAWAZ RESTAURANT,60659
TONY'S FINER FOODS,1966808,CHICAGO,IL,Pass,-87.72248283,41.9561262,20161020,Risk 1 (High),(41.95612620147909 -87.72248282629168),1717529,Grocery Store,4137 N ELSTON AVE ,Complaint,TONY'S FINER FOODS ENTERPRISES INC.,60618
REAL GOOD JUICE CO. (INSIDE WHOLEFOODS),1966767,CHICAGO,IL,Pass,-87.6530507,41.90939879,20161019,Risk 2 (Medium),(41.90939878780941 -87.65305069789407),2493060,Restaurant,1550 N KINGSBURY ST ,License,REAL GOOD JUICE CO.,60642
GRAND CHINESE KITCHEN,1966762,CHICAGO,IL,Out of Business,-87.5875494,41.73677605,20161019,Risk 1 (High),(41.736776054766636 -87.58754939887204),1069184,Restaurant,1511 E 87TH ST ,Canvass,GRAND CHINESE KITCHEN,60619
empty,1966438,Chicago,IL,Not Ready,-87.65992581,41.97306821,20161013,empty,(41.97306821306215 -87.65992580689424),2458787,empty,5010 N BROADWAY ,License,BAMBU DESSERTS AND DRINKS,60640
CAFE TOLA II,1966803,CHICAGO,IL,Fail,-87.69806831,41.94267996,20161019,Risk 1 (High),(41.94267996160201 -87.69806831353777),2495714,Restaurant,3324 N CALIFORNIA AVE ,License,CAFE TOLA II,60618
FIREHOUSE OF DAN RYAN INC.,1966798,CHICAGO,IL,Pass,-87.62723156,41.73637382,20161019,Risk 2 (Medium),(41.73637382027632 -87.62723156456728),1717263,Restaurant,100 W 87TH ST ,Short Form Complaint,FIREHOUSE OF DAN RYAN INC.,60620
CHICAGO WINGS AROUND THE WORLD,1955298,CHICAGO,IL,Fail,-87.64438638,41.78350298,20161019,Risk 2 (Medium),(41.783502980089736 -87.64438637632864),2492231,Restaurant,748 W 61ST ST ,License,CHICAGO WINGS AROUND THE WORLD,60621
GYRO MENA,1966797,CHICAGO,IL,Fail,-87.65180999,41.93983529,20161019,Risk 1 (High),(41.93983528881153 -87.6518099948865),2129570,Restaurant,905 W BELMONT ,Complaint,GYRO MENA,60657
JERK PARADISE GRILLE,1966897,CHICAGO,IL,Not Ready,-87.64428597,41.75436101,20161019,Risk 1 (High),(41.754361010855725 -87.64428596725203),2464202,Restaurant,7660 S HALSTED ST ,License,JERK PARADISE GRILLE,60620
CHINA GOURMET,1966794,CHICAGO,IL,Pass,-87.67459345,42.01146046,20161019,Risk 1 (High),(42.011460459993124 -87.6745934517097),2458370,Restaurant,7100 N Clark ST ,Short Form Complaint,CHINA GOURMET,60626
CHICAGO WINGS AROUND THE WORLD,1966783,CHICAGO,IL,Pass w/ Conditions,-87.61039696,41.75837337,20161019,Risk 2 (Medium),(41.758373367094116 -87.61039696347366),2451478,Restaurant,557 E 75TH ST ,Short Form Complaint,CHICAGO WINGS AROUND THE WORLD 75TH LLC,60619
CAFE LOGAN,1950893,CHICAGO,IL,Pass,-87.60374469,41.78579096,20160822,Risk 1 (High),(41.78579095767523 -87.60374468613567),2470398,Restaurant,915 E 60TH ST ,License,CAFE LOGAN,60637
GRAND CHINESE KITCHEN,1966760,CHICAGO,IL,Pass,-87.5875494,41.73677605,20161019,Risk 1 (High),(41.736776054766636 -87.58754939887204),2493286,Restaurant,1511 E 87TH ST ,License,GRAND CHINESE KITCHEN,60619
SYMPHONY OF SOUTH SHORE,1966747,CHICAGO,IL,Fail,-87.56548242,41.76620346,20161018,Risk 1 (High),(41.766203459922444 -87.56548241761398),2447190,Long Term Care,2425 E SOUTH SHORE DR ,License,SYMPHONY OF SOUTH SHORE,60649
NHU LAN BAKERY,1966744,CHICAGO,IL,Pass,-87.69436907,41.96867613,20161018,Risk 1 (High),(41.968676134286625 -87.69436906781544),1772039,Bakery,2612 W LAWRENCE AVE ,Complaint Re-Inspection,NHU LAN BAKERY,60625
MIKE'S BIG GYROS,1966739,CHICAGO,IL,Pass,-87.62440142,41.75100958,20161018,Risk 1 (High),(41.751009580289924 -87.62440141614083),2492978,Restaurant,7859 S STATE ST ,License,MIKE'S BIG GYROS,60619
THE ANGRY CRAB,1966736,CHICAGO,IL,Fail,-87.69722674,41.98450761,20161018,Risk 1 (High),(41.98450761309772 -87.69722674280237),2379885,Restaurant,5665 N LINCOLN AVE ,Complaint,THE ANGRY CRAB,60659
CHINA WOK,1955297,CHICAGO,IL,Pass,-87.6752214,41.83050042,20161018,Risk 1 (High),(41.83050041795062 -87.67522140471041),2488771,Restaurant,1958 W 35TH ST ,License Re-Inspection,CHINA WOK,60609
ANGELS 'R' US KIDZ ACADEMY INC,1966738,CHICAGO,IL,Pass,-87.62142025,41.82237019,20161018,Risk 1 (High),(41.82237019007892 -87.62142025266414),2216065,Daycare (2 - 6 Years),3941-3943 S INDIANA AVE ,License Re-Inspection,ANGELS 'R' US KIDZ ACADEMY INC,60653
SUNDA,1610179,CHICAGO,IL,Pass,-87.63161779,41.89092422,20160126,Risk 1 (High),(41.890924221316645 -87.6316177901787),2432361,Restaurant,110 W ILLINOIS ST ,License,SUNDA,60654
UNITED CLUB (T2/F9),1966725,CHICAGO,IL,Pass w/ Conditions,-87.91442844,42.0085364,20161018,Risk 1 (High),(42.008536400868735 -87.91442843927047),2184012,Restaurant,11601 W TOUHY AVE ,Canvass,UNITED CLUB,60666
NEW AGUILA # 1 GROCERY,1966727,CHICAGO,IL,Pass,-87.75997485,41.92394813,20161018,Risk 3 (Low),(41.923948127343664 -87.75997485213264),2492840,Grocery Store,5333 W FULLERTON AVE ,License,NEW AGUILA # 1 GROCERY INC.,60639
SABORES DE AMERICA KATAKANA KOKO MEXICAN GRILL,1966723,CHICAGO,IL,Fail,-87.80699727,41.94921947,20161018,Risk 1 (High),(41.94921947071411 -87.80699727423111),2493152,Restaurant,3809-3811 N HARLEM AVE ,License,SABORES DE AMERICA KATAKANA KOKO MEXICAN GRILL,60634
I.H.O.P. RESTAURANT,1966720,CHICAGO,IL,Fail,-87.74757442,41.95742942,20161018,Risk 1 (High),(41.95742941661818 -87.74757441604942),46344,Restaurant,4210 N CICERO AVE ,Complaint,I.H.O.P.,60641
TRUE FOOD KITCHEN,1966711,CHICAGO,IL,Not Ready,-87.62854665,41.89395586,20161018,Risk 3 (Low),(41.89395585670853 -87.62854664840329),2446280,empty,9 W ERIE ST ,License,TRUE FOOD KITCHEN,60654
KIMURA SUSHI,1966707,CHICAGO,IL,Pass,-87.66264704,41.86943381,20161018,Risk 1 (High),(41.86943380987853 -87.66264704407905),2483580,Restaurant,1422 W Taylor ST ,License Re-Inspection,KIMURA SUSHI,60607
BASIL CAMPUS,1955296,CHICAGO,IL,Pass,-87.67023496,41.79407037,20161018,Risk 1 (High),(41.79407037097534 -87.67023496228867),1982031,School,1816 W GARFIELD BLVD ,Canvass,CHICAGO INTERNATIONAL CHARTER SCHOOL,60609
MR SALSA,1966700,CHICAGO,IL,Pass,-87.6558299,41.96165172,20161018,Risk 1 (High),(41.96165171832781 -87.65582989543893),1596802,Restaurant,1025 W MONTROSE AVE ,Complaint,MR SALSA,60613
CAFE #10,1966697,CHICAGO,IL,Fail,-87.80624603,41.92792702,20161018,Risk 3 (Low),(41.927927018691754 -87.80624603489264),2470707,Restaurant,2625 N HARLEM AVE ,License,CAFE #10,60707
SU CASA,1966699,CHICAGO,IL,Pass,-87.62617281,41.89319256,20161018,Risk 1 (High),(41.89319255965124 -87.62617281400281),1194932,Restaurant,49 E ONTARIO ST ,Complaint Re-Inspection,SU CASA,60611
ALCOIRIS,1966691,CHICAGO,IL,No Entry,-87.72689274,41.91705197,20161018,Risk 1 (High),(41.917051966932796 -87.72689273615504),30948,Restaurant,4007 W ARMITAGE AVE ,Complaint,ALCOIRIS INC,60639
CAFE #10,1966693,CHICAGO,IL,Fail,-87.80624603,41.92792702,20161018,Risk 1 (High),(41.927927018691754 -87.80624603489264),2470706,Restaurant,2625 N HARLEM AVE ,License,CAFE #10,60707
HAMPTON INN CHICAGO/ LOYOLA STATION,1966688,CHICAGO,IL,Pass,-87.66119115,42.00243764,20161018,Risk 3 (Low),(42.002437642824745 -87.66119115199011),2457768,Restaurant,1209 W ALBION AVE ,License,HAMPTON INN CHICAGO/ LOYOLA STATION,60626
ROCKWOOD,1966689,CHICAGO,IL,No Entry,-87.65504219,41.94515977,20161018,Risk 1 (High),(41.9451597671042 -87.65504218631185),1167794,Restaurant,3466-3470 N CLARK ST ,Complaint,ROCKWOOD,60657
INSTITUTE OF POSITIVE EDUCATION,1966685,CHICAGO,IL,Pass,-87.60021772,41.75245012,20161018,Risk 1 (High),(41.75245012387641 -87.60021771650342),2215576,Daycare (2 - 6 Years),7823 S ELLIS AVE ,License,INSTITUTE OF POSITIVE EDUCATION,60619
HAMPTON INN CHICAGO/ LOYOLA STATION,1966683,CHICAGO,IL,Pass,-87.66119115,42.00243764,20161018,Risk 2 (Medium),(42.002437642824745 -87.66119115199011),2457769,Restaurant,1209 W ALBION AVE ,License,HAMPTON INN CHICAGO/ LOYOLA STATION,60626
PUBLIC HOUSE,1966679,CHICAGO,IL,Pass,-87.62815267,41.88931871,20161018,Risk 1 (High),(41.88931871105875 -87.62815266789968),2008148,Restaurant,400 N STATE ST ,Complaint,PUBLIC HOUSE,60654
THE LUNATICTHE LOVER & POET,1966678,CHICAGO,IL,Pass,-87.64721548,41.88451904,20161018,Risk 1 (High),(41.88451904314297 -87.6472154786667),2464695,Restaurant,736 W RANDOLPH ST ,License,THE LUNATICTHE LOVER & THE POET,60661
RAW BAR & GRILL,1966631,CHICAGO,IL,Pass,-87.65860702,41.94959069,20161017,Risk 1 (High),(41.94959069063464 -87.65860701972706),19444,Restaurant,3720 N CLARK ST ,Short Form Complaint,RAW BAR & GRILL,60613
MANEE THAI PAN ASIAN RESTAURANT & SUSHI,1966676,CHICAGO,IL,Pass,-87.72754688,41.94633265,20161018,Risk 1 (High),(41.946332650823166 -87.72754687888806),2031570,Restaurant,3558 N PULASKI RD ,Complaint Re-Inspection,MANEETHAI RESTAURANT,60641
POPEYE'S CHICKEN,1966673,CHICAGO,IL,Pass,-87.66583086,41.83533622,20161018,Risk 1 (High),(41.8353362239431 -87.66583085901608),2489026,Restaurant,3204 S ASHLAND AVE ,License,POPEYE'S,60608
ROCKY MOUNTAIN  CHOCOLATE FACTORY  (T3 H5),1966662,CHICAGO,IL,Pass,-87.91442844,42.0085364,20161018,Risk 2 (Medium),(42.008536400868735 -87.91442843927047),1926569,Restaurant,11601 W TOUHY AVE ,Canvass,ROCKY MOUNTAIN CHOCOLATE FACTORY,60666
NEW PEARL'S PLACE RESTAURANT,1966665,CHICAGO,IL,Pass,-87.62302379,41.82364932,20161018,Risk 1 (High),(41.82364931821311 -87.62302379163799),2458709,Restaurant,3901 S MICHIGAN AVE ,Complaint,NEW PEARL'S PLACE RESTAURANT,60653
SMART START DEVELOPMENT CENTER,1966765,CHICAGO,IL,No Entry,-87.68304372,41.76278715,20161018,Risk 1 (High),(41.76278714835731 -87.68304371614897),2215978,Children's Services Facility,7201 S WESTERN AVE ,License,SMART START DEVELOPMENT CENTER,60636
Dewey CPC,1955295,CHICAGO,IL,Pass,-87.64191534,41.79538643,20161018,Risk 1 (High),(41.79538642870011 -87.64191534235891),22952,School,638 W 54th Place (5432S) ,Canvass Re-Inspection,Dewey CPC,60609
ARETHA'S DREAM,1966656,CHICAGO,IL,Pass,-87.60935464,41.7513221,20161018,Risk 1 (High),(41.751322101891866 -87.60935463673758),2488238,Restaurant,616 E 79TH ST ,License,ARETHA'S DREAM,60619
MAKI MASTERS,1966655,CHICAGO,IL,Pass,-87.64466272,41.94014914,20161018,Risk 1 (High),(41.94014913764849 -87.6446627167078),2493168,Restaurant,604 W BELMONT AVE ,License,MAKI MASTERS,60657
TARGET,1966650,CHICAGO,IL,Pass,-87.59376104,41.79959787,20161018,Risk 3 (Low),(41.79959786938958 -87.59376103688076),2469770,Grocery Store,1330 E 53RD ST ,License Re-Inspection,TARGET STORE T-3219,60615
TRUE FOOD KITCHEN,1966647,CHICAGO,IL,Not Ready,-87.62854665,41.89395586,20161018,Risk 1 (High),(41.89395585670853 -87.62854664840329),2446139,empty,9 W ERIE ST ,License,TRUE FOOD KITCHEN,60654
J & B GYROS,1955291,CHICAGO,IL,Out of Business,-87.65539596,41.80155641,20161017,Risk 2 (Medium),(41.80155641340045 -87.65539595872276),2334461,Restaurant,1206 W 51ST ST ,Canvass,J & B GYROS,60609
THE JERK STOP CARIBBEAN,1966652,CHICAGO,IL,Pass,-87.6587916,41.96549259,20161018,Risk 1 (High),(41.96549258637949 -87.658791595264),2492992,Restaurant,1132 W WILSON AVE ,License,JERK STOP,60640
RAPHA,1966648,CHICAGO,IL,Pass,-87.67547637,41.90896025,20161018,Risk 2 (Medium),(41.90896024738321 -87.67547637112533),2492527,Restaurant,1514 N MILWAUKEE AVE ,License Re-Inspection,RAPHA,60622
Scandinavian Lounge (T5-M13),1966644,CHICAGO,IL,Pass,-87.91442844,42.0085364,20161018,Risk 2 (Medium),(42.008536400868735 -87.91442843927047),2487849,Airport Lounge,11601 W TOUHY AVE ,License Re-Inspection,SAS,60666
Scandinavian Lounge (T5-M13),1966646,CHICAGO,IL,Pass,-87.91442844,42.0085364,20161018,Risk 3 (Low),(42.008536400868735 -87.91442843927047),2487848,Airport Lounge,11601 W TOUHY AVE ,License Re-Inspection,SAS,60666
Dewey,1955294,CHICAGO,IL,Pass,empty,empty,20161018,Risk 1 (High),empty,22951,School,5415 S Union(700W) AVE ,Canvass Re-Inspection,Dewey,60609
THE LUNATICTHE LOVER & POET,1966645,CHICAGO,IL,Pass,-87.64721548,41.88451904,20161018,Risk 1 (High),(41.88451904314297 -87.6472154786667),2464694,Restaurant,736 W RANDOLPH ST ,License,THE LUNATICTHE LOVER & THE POET,60661
SUBWAY,1966640,CHICAGO,IL,Pass,-87.63936259,41.86632954,20161018,Risk 1 (High),(41.86632953539469 -87.63936258728717),2289496,Restaurant,1232 S CANAL ST ,Complaint,SUBWAY,60607
SYMPHONY JACKSON SQUARE,1966638,CHICAGO,IL,Pass,-87.75477136,41.87677136,20161018,Risk 1 (High),(41.87677135996502 -87.75477136468453),2447173,Long Term Care,5130 W JACKSON BLVD ,License,SYMPHONY OF CHICAGO WEST,60644
C'EST BIEN THAI,1966637,CHICAGO,IL,Pass,-87.67765677,41.95234331,20161018,Risk 1 (High),(41.952343305200465 -87.6776567659055),2492926,Restaurant,3900 N LINCOLN AVE ,License,C'EST BIEN THAI,60613
DANISH GAS & FOOD MART INC.,1966635,CHICAGO,IL,Pass w/ Conditions,-87.71048643,41.87352189,20161018,Risk 3 (Low),(41.8735218856565 -87.71048642868381),2363374,Grocery Store,3353-3359 W HARRISON ST ,Complaint Re-Inspection,DANISH GAS & FOOD MART INC,60624
REHMANIA LUPOS FISH AND CHICKEN,1955293,CHICAGO,IL,Pass,-87.64426896,41.76529571,20161017,Risk 2 (Medium),(41.7652957077341 -87.64426896091481),2115107,Restaurant,7059 S HALSTED ST ,Canvass,REHMANIA LUPOS FISH AND CHICKEN,60621
THE JERK STOP CARIBBEAN,1966627,CHICAGO,IL,Not Ready,-87.6587916,41.96549259,20161017,Risk 1 (High),(41.96549258637949 -87.658791595264),2492992,Restaurant,1132 W WILSON AVE ,License,JERK STOP,60640
BOOIL RESTAURANT,1966618,CHICAGO,IL,Fail,-87.71321223,41.98312305,20161017,Risk 1 (High),(41.98312305188657 -87.71321223490351),2427793,Restaurant,3346 W BRYN MAWR AVE ,Canvass,BOOILL GALBI,60659
BABAS FAMOUS STEAK & LEMONADE,1966614,CHICAGO,IL,Pass,-87.57518788,41.7215582,20161017,Risk 2 (Medium),(41.72155819719922 -87.57518787768151),1820972,Restaurant,9529 S JEFFERY AVE ,Short Form Complaint,BABAS FAMOUS STEAK & LEMONADE,60617
PIEROGI HEAVEN,1966605,CHICAGO,IL,Pass,-87.63504341,41.87739707,20161017,Risk 1 (High),(41.87739707385008 -87.63504341455305),2278220,Restaurant,329 S FRANKLIN ST ,Canvass,PIEROGI HEAVEN INC,60606
A STEP AHEAD LEARNING CENTER,1966606,CHICAGO,IL,Fail,-87.65333178,41.95866655,20161017,Risk 1 (High),(41.95866654787631 -87.653331779783),2215593,Daycare (2 - 6 Years),4208 N BROADWAY ,License,A STEP AHEAD LEARNING CENTER,60613
J J FISH,1955292,CHICAGO,IL,Pass,-87.63040492,41.79623488,20161017,Risk 2 (Medium),(41.796234875219376 -87.63040492438661),1276007,Restaurant,5401 S WENTWORTH AVE ,Complaint,J J FISH,60609
SEAFOOD HOT POT,1966600,CHICAGO,IL,Fail,-87.65904239,41.97336592,20161017,Risk 1 (High),(41.97336592094152 -87.65904238512795),2432467,Restaurant,1130 W ARGYLE ST ,Complaint,SEA FOOD HOT POT,60640
SAUGANASH SCHOOL FOR THE YOUNG YEARS,1695214,empty,IL,Pass,-87.74242662,41.98985673,20161017,Risk 3 (Low),(41.98985673339672 -87.74242662401299),2364330,Children's Services Facility,4541 W PETERSON AVE ,License,SAUGANASH SCHOOL FOR THE YOUNG YEARS,60646
FLAGSHIP TAVERN & GRILL,1966591,CHICAGO,IL,Pass,-87.66961665,41.93979302,20161017,Risk 1 (High),(41.93979302024049 -87.66961664829614),2231808,Restaurant,1622 W BELMONT AVE ,Complaint Re-Inspection,FLAGSHIP TAVERN & GRILL,60657
SYMPHONY OF BEVERLY,1966582,CHICAGO,IL,Pass,-87.69625291,41.7354034,20161017,Risk 1 (High),(41.73540340021031 -87.69625291435973),2447181,Long Term Care,2940 W 87TH ST ,License,SYMPHONY OF BEVERLY,60652
ANATOLIAN EXPRESS,1966585,CHICAGO,IL,Pass,-87.64422395,41.93919411,20161017,Risk 1 (High),(41.93919411054692 -87.64422395471186),2483390,Restaurant,3151 N BROADWAY ,License,ANATOLIAN EXPRESS,60657
UNITED CLUB (T1 B6),1966577,CHICAGO,IL,Out of Business,-87.91442844,42.0085364,20161017,Risk 2 (Medium),(42.008536400868735 -87.91442843927047),2422908,Restaurant,11601 W TOUHY AVE ,Canvass,UNITED CLUB,60666
FUN FUN CHINESE,1966580,CHICAGO,IL,Pass,-87.6498267,41.8842567,20161017,Risk 3 (Low),(41.88425670381661 -87.64982670264364),2476128,Restaurant,901-905 W RANDOLPH ST ,License Re-Inspection,FUN FUN CHINESE,60607
FUN FUN CHINESE,1966575,CHICAGO,IL,Pass,-87.6498267,41.8842567,20161017,Risk 1 (High),(41.88425670381661 -87.64982670264364),2476127,Restaurant,901-905 W RANDOLPH ST ,License Re-Inspection,FUN FUN CHINESE,60607
BAMBU CHE.COFFEE.TEAS,1966572,CHICAGO,IL,Pass,-87.65992581,41.97306821,20161017,Risk 2 (Medium),(41.97306821306215 -87.65992580689424),2458787,Restaurant,5010 N BROADWAY ,License,BAMBU DESSERTS AND DRINKS,60640
UNITED CLUB  (T1  B6),1966566,CHICAGO,IL,Pass,-87.91442844,42.0085364,20161017,Risk 1 (High),(42.008536400868735 -87.91442843927047),2492754,Restaurant,11601 W TOUHY AVE ,License Re-Inspection,UNITED CLUB,60666
EL ORIGINAL ACAMBARO BAKERY,1955289,CHICAGO,IL,Pass,-87.67731978,41.80130847,20161017,Risk 2 (Medium),(41.80130847172727 -87.6773197801203),2124801,Bakery,2108 W 51ST ST ,Canvass,EL ORIGINAL ACAMBARO BAKERY INC,60609
TAQUERIA LOS COMALES # 12,1647215,CHICAGO,IL,Fail,-87.72273813,41.7830976,20161017,Risk 1 (High),(41.78309760160854 -87.72273813015846),65987,Restaurant,6035 S PULASKI RD ,Complaint,TAQUERIA LOS COMALES # 12,60629
TINY TAVERN,1965829,CHICAGO,IL,Pass,-87.61156988,41.89209414,20161004,Risk 1 (High),(41.892094136861786 -87.61156988394656),2451931,Restaurant,600 E GRAND AVE ,License,TINY TAVERN,60611
WHISK CHICAGO,1966562,CHICAGO,IL,Pass w/ Conditions,-87.67786193,41.89600605,20161017,Risk 1 (High),(41.89600605332943 -87.67786192982513),2334079,Restaurant,2018 W CHICAGO AVE ,Complaint,WHISK CHICAGO,60622
UNITED CLUB  (T1  B6),1966561,CHICAGO,IL,Pass,-87.91442844,42.0085364,20161017,Risk 1 (High),(42.008536400868735 -87.91442843927047),2492753,Restaurant,11601 W TOUHY AVE ,License Re-Inspection,UNITED CLUB,60666
PIPEWORKS PRODUCTION,1723220,CHICAGO,IL,Fail,-87.72595816,41.91820611,20161017,Risk 3 (Low),(41.918206112588564 -87.72595815659295),2476605,Liquor,3912 W MCLEAN AVE ,License,PIPEWORKS PRODUCTION,60647
CAFE SAN JUAN,1973212,CHICAGO,IL,Not Ready,-87.70804923,41.95957153,20161017,Risk 1 (High),(41.959571527006716 -87.70804923117949),2493115,Bakery,4305 N KEDZIE AVE ,License,CAFE SAN JUAN,60618
MCDONALD'S,1672214,CHICAGO,IL,Pass,-87.68338584,41.77511657,20161017,Risk 2 (Medium),(41.775116565908775 -87.68338583887078),1874347,Restaurant,6515 S WESTERN AVE ,Complaint Re-Inspection,MCDONALD'S,60636
CHICAGO WALDORF SCHOOL,1973211,CHICAGO,IL,Pass,-87.68359922,41.96149927,20161017,Risk 1 (High),(41.961499265953364 -87.68359922245688),2469513,School,2156 W MONTROSE AVE ,License Re-Inspection,CHICAGO WALDORF SCHOOL,60618
GIFT 4 KIDS DAYCARE,1966555,CHICAGO,IL,Pass,-87.65480912,41.69209807,20161017,Risk 1 (High),(41.6920980711081 -87.6548091189968),2341291,Daycare Above and Under 2 Years,1305-1307 W 111TH ST ,License Re-Inspection,GIFT 4 KIDS DAYCARE CENTER LLC,60643
MUNCHIES FOOD MART INC,1966633,CHICAGO,IL,No Entry,-87.65564608,41.69230592,20161017,Risk 2 (Medium),(41.69230592090601 -87.65564608116505),2342387,Grocery Store,1326 W 111TH ST ,Complaint Re-Inspection,MUNCHIES FOOD MART INC,60643
MYRON MIXON'S SMOKE SHOW BARBECUE,1966552,CHICAGO,IL,Pass,-87.6595418,41.95117556,20161014,Risk 1 (High),(41.95117555641557 -87.65954180248546),2484149,Restaurant,3801-3809 N CLARK ST ,License,MYRON MIXON'S SMOKE SHOW BARBECUE,60613
THALIA'S RESTAURANT,1960221,CHICAGO,IL,Fail,-87.77635805,41.938341,20160913,Risk 1 (High),(41.93834100224705 -87.77635804996433),2464942,Restaurant,3156 N AUSTIN AVE ,License,THALIA'S RESTAURANT,60634
PERSHING CENTER,1955288,CHICAGO,IL,Pass,-87.633075,41.8235152,20161014,Risk 2 (Medium),(41.82351520329658 -87.63307500146024),1493623,Grocery Store,243 W PERSHING RD ,Canvass,PERSHING CENTER,60609
C'EST BIEN THAI,1966546,CHICAGO,IL,Not Ready,-87.67765677,41.95234331,20161014,Risk 1 (High),(41.952343305200465 -87.6776567659055),2492926,Restaurant,3900 N LINCOLN AVE ,License,C'EST BIEN THAI,60613
JOHNNY'S ICE HOUSE,1966540,CHICAGO,IL,Pass w/ Conditions,-87.69038959,41.88123342,20161014,Risk 2 (Medium),(41.88123342371891 -87.69038958620825),2350031,Restaurant,2550-2602 W MADISON ST ,Complaint,JOHNNY'S ICE HOUSE,60612
STELLA BARRA/SUMMER HOUSE SANTA MONICA,1966536,CHICAGO,IL,Pass,-87.64862901,41.91754113,20161014,Risk 1 (High),(41.91754112681401 -87.6486290102714),2234204,Restaurant,1954 N HALSTED ST ,Complaint Re-Inspection,SUMMER HOUSE SANTA MONICA/STELLA BARRA PIZZERIA,60614
empty,1966538,CHICAGO,IL,Pass,-87.64260918,41.87788853,20161014,Risk 2 (Medium),(41.87788852897838 -87.64260917533305),2493084,Restaurant,601 W JACKSON BLVD B,License,MEDDLE COFFEE BAR,60661
MYRON MIXON'S SMOKE SHOW BARBECUE,1966545,CHICAGO,IL,Pass,-87.6595418,41.95117556,20161014,Risk 1 (High),(41.95117555641557 -87.65954180248546),2484148,Restaurant,3801-3809 N CLARK ST ,License,MYRON MIXON'S SMOKE SHOW BARBECUE,60613
PEPE'S MEXICAN RESTAURANT,1966534,CHICAGO,IL,Pass,-87.60487318,41.74353307,20161014,Risk 1 (High),(41.743533070705446 -87.6048731835614),50042,Restaurant,8313-8325 S COTTAGE GROVE AVE ,Complaint,PEPE'S MEXICAN RESTAURANT,60619
J & J FISH,1966530,CHICAGO,IL,Fail,-87.76527467,41.88034981,20161014,Risk 1 (High),(41.88034981402218 -87.76527467412636),1300963,Restaurant,5608 W MADISON ST ,Complaint,J & J FISH,60644
REAL GOOD JUICE CO,1961097,CHICAGO,IL,Pass,-87.67804862,41.88664366,20160923,Risk 1 (High),(41.88664365719036 -87.6780486221427),2492018,Restaurant,2031 W FULTON ST ,License,REAL GOOD JUICE CO,60612
PROTEIN BAR,1951277,CHICAGO,IL,Pass,-87.62430852,41.88454011,20161014,Risk 1 (High),(41.88454011059238 -87.62430852246028),2373749,Restaurant,151 N MICHIGAN AVE ,Complaint,PROTEIN BAR,60601
Jimmy Johns,1966529,CHICAGO,IL,Fail,-87.74791096,41.95391362,20161014,Risk 1 (High),(41.95391361936965 -87.7479109624453),2333431,Restaurant,4021 N MILWAUKEE AVE ,Suspected Food Poisoning,Jimmy Johns,60641
JJ FISH & GROCERY,1966528,CHICAGO,IL,Pass,-87.69296412,41.76443109,20161014,Risk 2 (Medium),(41.764431087792644 -87.69296412238828),2341091,RESTAURANT/GROCERY STORE,2759 W 71ST ST ,Complaint Re-Inspection,JJ FISH & GROCERY INC.,60629
JOY YEE NOODLE SHOP,1966519,CHICAGO,IL,Fail,-87.63471471,41.85378847,20161014,Risk 1 (High),(41.85378847066135 -87.63471470519069),2008459,Restaurant,2139 S CHINA PL ,Complaint,JOY YEE NOODLE SHOP,60616
EDIBLE ARRANGEMENTS,1966516,CHICAGO,IL,Pass,-87.67580162,42.01928994,20161014,Risk 2 (Medium),(42.019289941587736 -87.67580161669515),2074321,Restaurant,1783 W HOWARD ST ,Complaint Re-Inspection,EDIBLE ARRANGEMENTS #1250,60626
HORIZON SCIENCE ACADEMY SOUTHWEST CHICAGO,1955287,CHICAGO,IL,Pass,-87.68392611,41.79517413,20161014,Risk 2 (Medium),(41.79517413497671 -87.68392610964902),3305928,School,5401 S WESTERN AVE ,Canvass,HORIZON SCIENCE ACADEMY SOUTHWEST CHICAGO,60609
MCDONALD'S,1966508,CHICAGO,IL,Pass w/ Conditions,-87.7057336,41.86651389,20161014,Risk 2 (Medium),(41.86651388819227 -87.70573359902552),33706,Restaurant,3200 W ROOSEVELT RD ,Short Form Complaint,MCDONALD'S,60624
TAQUERIA LOS FLACOS,1965754,CHICAGO,IL,Pass,-87.72398095,41.96839469,20160930,Risk 1 (High),(41.96839468756255 -87.72398094536197),2488725,Restaurant,3818 W LAWRENCE AVE ,License,TAQUERIA LOS FLACOS,60625
SHAY-BOO'S KITCHEN,1966509,CHICAGO,IL,Fail,-87.71121631,41.89539877,20161014,Risk 1 (High),(41.89539877332381 -87.71121630512987),2404838,Restaurant,3357 W CHICAGO AVE ,Complaint,SHAY-BOO'S KITCHEN,60651
GHAREEB NAWAZ RESTAURANT,1966514,CHICAGO,IL,Fail,-87.68142045,41.99798375,20161014,Risk 1 (High),(41.99798375025185 -87.68142044788961),2423912,Restaurant,2032-2034 W DEVON AVE,Complaint,GHAREEB NAWAZ RESTAURANT,60659
TIBA RESTAURANT INC.,1966512,CHICAGO,IL,Pass,-87.69708958,41.96843517,20161014,Risk 1 (High),(41.96843517181452 -87.69708958435346),2493002,Restaurant,2721 W LAWRENCE AVE FL 1ST,License,TIBA RESTAURANT INC.,60625
MIDWAY SUB,1966504,CHICAGO,IL,Pass,-87.78277753,41.79221475,20161014,Risk 2 (Medium),(41.7922147542527 -87.78277752928788),2013448,Restaurant,6421 W ARCHER AVE ,Short Form Complaint,MIDWAY SUB,60638
CHEZ VIOLETTE RESTAURANT,1966502,CHICAGO,IL,Out of Business,-87.68821678,42.01940787,20161014,Risk 1 (High),(42.019407874043075 -87.6882167837797),2064476,Restaurant,2311 W HOWARD ST ,Canvass,CHEZ VIOLETTE RESTAURANT,60645
HAROLD'S CHICKEN SHACK,1966503,CHICAGO,IL,Pass,-87.63005895,41.76126021,20161014,Risk 2 (Medium),(41.76126021386328 -87.63005894785265),2488931,Restaurant,7318 S VINCENNES AVE ,License Re-Inspection,HAROLDS'S CHICKEN SHACK,60621
TROPIC ISLAND JERK CHICKEN,1966498,CHICAGO,IL,Pass,-87.61039129,41.75108429,20161014,Risk 1 (High),(41.75108428742866 -87.61039128821193),2017922,Restaurant,553 E 79TH ST ,Complaint Re-Inspection,TROPIC ISLAND JERK CHICKEN,60619
MORGAN STREET CAFE,1966494,CHICAGO,IL,Pass,-87.65183157,41.88004797,20161014,Risk 1 (High),(41.880047970125254 -87.65183157127098),1595203,Restaurant,111 S MORGAN ST ,Complaint Re-Inspection,MORGAN STREET CAFE,60607
SAM'S CHICKEN AND RIBS PIZZA,1966493,CHICAGO,IL,Pass,-87.71266918,41.93990723,20161014,Risk 1 (High),(41.939907233250814 -87.71266918212199),2492776,Restaurant,3220 N KIMBALL ,License,SAM'S CHICKEN AND RIBS PIZZA,60618
SOUTHPORT GROCERY AND CAFE INC.,1961082,CHICAGO,IL,Pass w/ Conditions,-87.66415601,41.94682731,20160922,Risk 1 (High),(41.94682731238705 -87.6641560054108),1739804,Restaurant,3552 N SOUTHPORT AVE ,Canvass,SOUTHPORT GROCERY AND CAFE INC.,60657
NHU LAN BAKERY,1966489,CHICAGO,IL,Fail,-87.69436907,41.96867613,20161014,Risk 1 (High),(41.968676134286625 -87.69436906781544),1772039,Bakery,2612 W LAWRENCE AVE ,Complaint Re-Inspection,NHU LAN BAKERY,60625
SEE THRU CHINESE RESTAURANT,1966485,CHICAGO,IL,Pass,-87.70670533,41.89561531,20161014,Risk 1 (High),(41.89561531354531 -87.70670532510552),1227055,Restaurant,800 N KEDZIE AVE ,Short Form Complaint,SEE THRU CHINESE RESTAURANT,60651
DOCKS,1966475,CHICAGO,IL,Pass w/ Conditions,-87.62750922,41.73638005,20161014,Risk 2 (Medium),(41.736380045588184 -87.62750921902564),1445981,Restaurant,112 W 87TH ST ,Short Form Complaint,DOCKS,60620
FUN FUN CHINESE,1966479,CHICAGO,IL,Fail,-87.6498267,41.8842567,20161014,Risk 3 (Low),(41.88425670381661 -87.64982670264364),2476128,Restaurant,901-905 W RANDOLPH ST ,License Re-Inspection,FUN FUN CHINESE,60607
FUN FUN CHINESE,1966480,CHICAGO,IL,Fail,-87.6498267,41.8842567,20161014,Risk 1 (High),(41.88425670381661 -87.64982670264364),2476127,Restaurant,901-905 W RANDOLPH ST ,License Re-Inspection,FUN FUN CHINESE,60607
WENDY'S,1966471,CHICAGO,IL,Not Ready,-87.68999576,41.99667686,20161014,Risk 1 (High),(41.99667685737697 -87.68999575516291),2469194,Restaurant,6324 N WESTERN AVE ,License,WENDY'S PROPERTIES LLC,60659
DONG KY RESTAURANT & BAKERY,1966473,CHICAGO,IL,Fail,-87.6595799,41.97112552,20161014,Risk 1 (High),(41.97112552121299 -87.65957990461612),1273135,Restaurant,4877 N BROADWAY ,Complaint,DONG KY RESTAURANT & BAKERY,60640
VISTA HERMOSA RESTAURANT,1746296,CHICAGO,IL,Pass,-87.66530182,41.81620726,20160913,Risk 3 (Low),(41.816207260667184 -87.66530181656739),2477298,Restaurant,4248 S ASHLAND AVE ,License,VISTA HERMOSA RESTAURANT,60609
WEST LAWN FOODS,1966472,CHICAGO,IL,Fail,-87.72313003,41.78660841,20161014,Risk 1 (High),(41.786608409502335 -87.72313002889523),1591726,Grocery Store,5838 S PULASKI RD ,Short Form Complaint,WEST LAWN FOODS,60629
SYMPHONY MIDWAY,1966468,CHICAGO,IL,Not Ready,-87.74312825,41.8119896,20161014,Risk 1 (High),(41.811989599987115 -87.74312824835363),2447171,Long Term Care,4437 S CICERO AVE ,License,SYMPHONY MIDWAY,60632
DUNKIN DONUT,1966461,CHICAGO,IL,Pass w/ Conditions,-87.65915456,41.98352906,20161014,Risk 2 (Medium),(41.98352906115736 -87.65915456081615),28690,Restaurant,1127 W BRYN MAWR AVE ,Complaint Re-Inspection,DUNKIN DONUT,60660
KUROWSKI SAUSAGE SHOP & RICH,1966463,CHICAGO,IL,Pass,-87.71786011,41.93530555,20161014,Risk 1 (High),(41.93530555224116 -87.71786010617684),58973,Grocery Store,2976-2978 N MILWAUKEE AVE ,Complaint,KUROWSKI SAUSAGE SHOP & RICH,60618
RAINFOREST LEARNING CENTER INC,1966458,CHICAGO,IL,Pass,-87.69216904,41.93202492,20161014,Risk 1 (High),(41.93202492010381 -87.69216904438716),2220945,Daycare Above and Under 2 Years,2545 W DIVERSEY AVE ,License,RAINFOREST LEARNING CENTER INC,60647
DUNKIN DONUTS,1966449,CHICAGO,IL,Pass,-87.64098857,41.88002352,20161014,Risk 2 (Medium),(41.88002352164489 -87.6409885748007),1938957,Restaurant,117 S CLINTON ST ,Complaint Re-Inspection,DUNKIN DONUTS,60661
RAPHA,1966442,CHICAGO,IL,Fail,-87.67547637,41.90896025,20161014,Risk 2 (Medium),(41.90896024738321 -87.67547637112533),2492527,Restaurant,1514 N MILWAUKEE AVE ,License,RAPHA,60622
LAS ESPERANZAS,1955286,CHICAGO,IL,Out of Business,-87.6697689,41.80866777,20161013,Risk 1 (High),(41.808667770562145 -87.66976890118669),1447323,Restaurant,1758 W 47TH ST ,Canvass,LAS ESPERANZAS,60609
MCDONALDS,1966437,CHICAGO,IL,Pass,-87.56516065,41.7516336,20161013,Risk 2 (Medium),(41.751633598975936 -87.56516065093352),2308020,Restaurant,2425 E 79TH ST ,Short Form Complaint,MCDONALDS,60649
Richards HS,1955285,CHICAGO,IL,Fail,-87.66224052,41.80285552,20161013,Risk 1 (High),(41.802855521034864 -87.66224052051032),53051,School,5009 S Laflin (1500W) ,Canvass,Richards HS,60609
ISLAND FISH & CHICKEN,1966435,CHICAGO,IL,Pass,-87.65416114,41.77224374,20161013,Risk 2 (Medium),(41.77224374332345 -87.65416114140606),2493095,Restaurant,6701 S RACINE AVE ,License,ISLAND FISH & CHICKEN,60636
MANEE THAI PAN ASIAN RESTAURANT & SUSHI,1966430,CHICAGO,IL,Fail,-87.72754688,41.94633265,20161013,Risk 1 (High),(41.946332650823166 -87.72754687888806),2031570,Restaurant,3558 N PULASKI RD ,Complaint,MANEETHAI RESTAURANT,60641
WABI SABI ROTARY,1966429,CHICAGO,IL,Pass,-87.65462704,41.96433623,20161013,Risk 1 (High),(41.964336225778 -87.6546270434299),2492706,Restaurant,4521 N SHERIDAN RD ,License Re-Inspection,WABI SABI ROTARY,60640
LA TAPENADE EXPRESS/T2 E9,1966423,CHICAGO,IL,Pass,-87.91442844,42.0085364,20161013,Risk 3 (Low),(42.008536400868735 -87.91442843927047),2363759,KIOSK,11601 W TOUHY AVE ,Canvass,LA TAPENADE EXPRESS E09,60666
PARLOR PIZZA BAR,1966420,CHICAGO,IL,Fail,-87.67339734,41.90335951,20161013,Risk 1 (High),(41.90335951000414 -87.67339733788289),2437116,Restaurant,1824-1826 W DIVISION ST ,Complaint,PARLOR PIZZA BAR,60622
NEW YORK FOOD MART,1955266,CHICAGO,IL,Pass,-87.62219866,41.83116426,20160930,Risk 2 (Medium),(41.83116426262855 -87.62219866212499),2464375,CONVENIENCE STORE,122 E 35TH ST ,Canvass Re-Inspection,NEW YORK FOOD MART,60616
LINDYS AND GERTIES ORIGINAL,1966434,CHICAGO,IL,Pass,-87.68323709,41.8268122,20161013,Risk 1 (High),(41.82681219988024 -87.68323708639228),2423372,Restaurant,3685 S ARCHER AVE ,Canvass Re-Inspection,LINDYS AND GERTIES ORIGINAL,60609
HORIZON CAFE,1966425,CHICAGO,IL,Fail,-87.64946947,41.95139015,20161013,Risk 1 (High),(41.951390150873834 -87.64946946794332),1495171,Restaurant,3805 N BROADWAY ,Suspected Food Poisoning,HORIZON CAFE,60613
WHALE FISH AND CHICKEN INC,1966421,CHICAGO,IL,Pass,-87.74978952,41.88033045,20161013,Risk 2 (Medium),(41.880330453312716 -87.74978951712637),1356889,Restaurant,4955 W MADISON ST ,Short Form Complaint,WHALE FISH AND CHICKEN INC,60644
ROYCE CHICAGO,1966418,CHICAGO,IL,Pass,-87.62430718,41.89168852,20161013,Risk 3 (Low),(41.89168851736832 -87.62430717812579),2492240,Restaurant,520 N MICHIGAN AVE ,License,ROYCE CHICAGO,60611
SMILEY FOOD MART,1966410,CHICAGO,IL,Pass,-87.65479263,41.78520789,20161013,Risk 2 (Medium),(41.78520789016766 -87.65479262521927),2482962,Grocery Store,5958 S RACINE AVE ,License Re-Inspection,SMILEY FOOD,60636
STARBUCK'S (T2 E9),1966409,CHICAGO,IL,Pass,-87.91442844,42.0085364,20161013,Risk 2 (Medium),(42.008536400868735 -87.91442843927047),34241,Restaurant,11601 W TOUHY AVE ,Canvass,STARBUCK'S DELI,60666
BUSY BEES LEARNING SCHOOL INC.,1966403,CHICAGO,IL,Pass,-87.63491823,41.83808438,20161013,Risk 1 (High),(41.83808437961537 -87.63491822933265),2446175,Children's Services Facility,319-325 W 31ST ST ,License Re-Inspection,BUSY BEES LEARNING SCHOOL INC.,60616
SIL WADI FAST FOOD,1966402,CHICAGO,IL,Not Ready,-87.71771523,41.8989884,20161013,Risk 2 (Medium),(41.89898839629317 -87.71771523169723),2437853,Restaurant,3635 W AUGUSTA BLVD ,Complaint,SIL WADI FAST FOOD,60651
SNAP KITCHEN,1966380,CHICAGO,IL,Pass,-87.66976711,41.88314295,20161013,Risk 1 (High),(41.88314294811615 -87.66976710838105),2404720,Catering,1709 W WASHINGTON BLVD ,Complaint Re-Inspection,SNAP KITCHEN,60612
TRUTH,1578842,CHICAGO,IL,Pass,-87.62428782,41.8238513,20151013,Risk 1 (High),(41.823851299838886 -87.62428782040833),2423115,Restaurant,56 E PERSHING RD ,License,TRUTH,60653
IVY APARTMENTS,1966404,CHICAGO,IL,Not Ready,-87.66321627,41.92632415,20161013,Risk 1 (High),(41.926324153304904 -87.6632162733215),2446865,Long Term Care,2437 N SOUTHPORT AVE ,License,SYMPHONY IVY LLC,60614
CHICAGO SUBMARINE INC,1966398,CHICAGO,IL,Pass,-87.74608042,41.89489092,20161013,Risk 2 (Medium),(41.89489092409063 -87.74608042225631),85401,Restaurant,4805 W CHICAGO AVE ,Short Form Complaint,CHICAGO SUBMARINE INC,60651
CHICAGO PRESCHOOL ACADEMY,1966394,CHICAGO,IL,Pass,-87.61074798,41.73666987,20161013,Risk 1 (High),(41.73666986650331 -87.61074798462452),2215875,Children's Services Facility,532-534 E 87TH ST ,License,CHICAGO PRESCHOOL ACADEMY,60619
FLAGSHIP TAVERN & GRILL,1966390,CHICAGO,IL,Pass w/ Conditions,-87.66961665,41.93979302,20161013,Risk 1 (High),(41.93979302024049 -87.66961664829614),2231808,Restaurant,1622 W BELMONT AVE ,Complaint Re-Inspection,FLAGSHIP TAVERN & GRILL,60657
JIMMY JOHN'S,1966389,CHICAGO,IL,Pass,-87.65950777,41.9654799,20161013,Risk 1 (High),(41.96547989696298 -87.6595077701744),2411776,Restaurant,1148 W WILSON AVE ,Complaint,JIMMY JOHN'S,60640
SYMPHONY OF LINCOLN PARK,1966393,CHICAGO,IL,Fail,-87.66312244,41.92533056,20161013,Risk 1 (High),(41.925330555308214 -87.66312243534863),2446871,Long Term Care,1366 W FULLERTON AVE ,License,SYMPHONY OF LINCOLN PARK,60614
ZACATACOS,1966384,CHICAGO,IL,Pass,-87.72279065,41.78507649,20161013,Risk 1 (High),(41.78507649032044 -87.72279064865629),50551,Restaurant,5925 S PULASKI RD ,Complaint,ZACATACOS,60629
ARAMI,1966386,CHICAGO,IL,No Entry,-87.67335104,41.89586195,20161013,Risk 1 (High),(41.89586195493881 -87.67335103601313),2032955,Restaurant,1829 W CHICAGO AVE ,Complaint,ARAMI,60622
RYLON'S SMOKEHOUSE PARTNERS LLP,1966381,CHICAGO,IL,Pass,-87.62442588,41.85275162,20161013,Risk 1 (High),(41.85275161632059 -87.62442588215922),2487753,Restaurant,67-69 E CERMAK RD ,License,RYLON'S SMOKEHOUSE PARTNERS LLP,60616
NICO,1447835,CHICAGO,IL,Fail,-87.62756406,41.90119804,20150528,Risk 1 (High),(41.90119804129134 -87.6275640618535),2385311,Restaurant,1015 N RUSH ST ,License,NICO,60611
BRIDGEPORT FAMILY RESTAURANT,1955284,CHICAGO,IL,Pass,-87.64625092,41.83069534,20161013,Risk 1 (High),(41.83069533520227 -87.64625091576728),2026715,Restaurant,3500 S HALSTED ST ,Canvass,BRIDGEPORT FAMILY RESTAURANT,60609
RAPHA,1966378,CHICAGO,IL,Not Ready,-87.67547637,41.90896025,20161013,Risk 2 (Medium),(41.90896024738321 -87.67547637112533),2492527,Restaurant,1514 N MILWAUKEE AVE ,License,RAPHA,60622
UNITED CLUB  (T1  B6),1966377,CHICAGO,IL,Fail,-87.91442844,42.0085364,20161013,Risk 1 (High),(42.008536400868735 -87.91442843927047),2492754,Restaurant,11601 W TOUHY AVE ,License,UNITED CLUB,60666
ANATOLIAN EXPRESS,1966376,CHICAGO,IL,Not Ready,-87.64422395,41.93919411,20161013,Risk 1 (High),(41.93919411054692 -87.64422395471186),2483390,Restaurant,3151 N BROADWAY ,License,ANATOLIAN EXPRESS,60657
empty,1966375,CHICAGO,IL,Not Ready,-87.65573365,41.96918743,20161013,Risk 2 (Medium),(41.96918742738737 -87.65573364991938),2476947,Restaurant,1020 W LAWRENCE AVE ,License,HERITAGE OUTPOST LAWRENCE HOUSE LLC,60640
ROTI MODERN MEDITRRANEAN,1951273,CHICAGO,IL,Pass,-87.62509486,41.88584721,20161013,Risk 1 (High),(41.885847208704554 -87.62509485736301),2470642,Restaurant,80 E LAKE ST ,License,ROTI MODERN MEDITERRANEAN,60601
ARTISTS SNACH SHOP,1966367,CHICAGO,IL,Pass,-87.62442805,41.87666158,20161013,Risk 3 (Low),(41.87666157989593 -87.62442805181986),2457463,Restaurant,412 S MICHIGAN AVE ,License,ARTISTS SNACK SHOP,60605
UNITED CLUB  (T1  B6),1966366,CHICAGO,IL,Fail,-87.91442844,42.0085364,20161013,Risk 1 (High),(42.008536400868735 -87.91442843927047),2492753,Restaurant,11601 W TOUHY AVE ,License,UNITED CLUB,60666
TIBA RESTAURANT INC.,1966361,CHICAGO,IL,Not Ready,-87.69708958,41.96843517,20161013,Risk 1 (High),(41.96843517181452 -87.69708958435346),2493002,Restaurant,2721 W LAWRENCE AVE FL 1ST,License,TIBA RESTAURANT INC.,60625
3 ABEJAS,1966362,CHICAGO,IL,Pass,-87.53584559,41.70284554,20161013,Risk 2 (Medium),(41.702845543419045 -87.53584559419713),2492274,Restaurant,3614 E 106TH ST ,License,3 ABEJAS,60617
ROTI MODERN MEDITRRANEAN,1951272,CHICAGO,IL,Pass,-87.62509486,41.88584721,20161013,Risk 1 (High),(41.885847208704554 -87.62509485736301),2470641,Restaurant,80 E LAKE ST ,License,ROTI MODERN MEDITERRANEAN,60601
empty,1966360,CHICAGO,IL,Fail,-87.65573365,41.96918743,20161013,Risk 2 (Medium),(41.96918742738737 -87.65573364991938),2476946,Restaurant,1020 W LAWRENCE AVE ,License,HERITAGE OUTPOST LAWRENCE HOUSE LLC,60640
UNITED SUPERMARKET INC.,1966357,CHICAGO,IL,Pass,-87.62228488,41.793296,20161013,Risk 1 (High),(41.79329599672656 -87.62228488339794),2492447,Grocery Store,5539 S MICHIGAN AVE ,License,UNITED SUPERMARKET INC.,60637
WINDY CITY CAFE,1950647,CHICAGO,IL,Pass,-87.65492652,41.89638429,20160818,Risk 1 (High),(41.89638429492164 -87.65492651788387),2469715,Restaurant,1060-1062 W CHICAGO AVE ,License,WINDY CITY CAFE,60642
FUN FUN CHINESE,1966358,CHICAGO,IL,Fail,-87.6498267,41.8842567,20161013,Risk 3 (Low),(41.88425670381661 -87.64982670264364),2476128,Restaurant,901-905 W RANDOLPH ST ,License,FUN FUN CHINESE,60607
Scandinavian Lounge (T5-M13),1966352,CHICAGO,IL,Fail,-87.91442844,42.0085364,20161013,Risk 3 (Low),(42.008536400868735 -87.91442843927047),2487848,Airport Lounge,11601 W TOUHY AVE ,License,SAS,60666
DANISH GAS & FOOD MART INC.,1966353,CHICAGO,IL,Fail,-87.71048643,41.87352189,20161013,Risk 3 (Low),(41.8735218856565 -87.71048642868381),2363374,Grocery Store,3353-3359 W HARRISON ST ,Complaint Re-Inspection,DANISH GAS & FOOD MART INC,60624
Scandinavian Lounge (T5-M13),1966351,CHICAGO,IL,Fail,-87.91442844,42.0085364,20161013,Risk 2 (Medium),(42.008536400868735 -87.91442843927047),2487849,Airport Lounge,11601 W TOUHY AVE ,License,SAS,60666
FUN FUN CHINESE,1966350,CHICAGO,IL,Fail,-87.6498267,41.8842567,20161013,Risk 1 (High),(41.88425670381661 -87.64982670264364),2476127,Restaurant,901-905 W RANDOLPH ST ,License,FUN FUN CHINESE,60607
NORTHWEST INSTITUTE FOR CONTEMPORARY LEARNINGINC,1966342,CHICAGO,IL,Pass,-87.72808036,41.90275374,20161013,Risk 1 (High),(41.90275373866579 -87.72808035796129),2475976,Daycare (2 - 6 Years),4040 W DIVISION ST ,License,NORTHWEST INSTITUTE FOR CONTEMPORARY LEARNINGINC,60651
PISOLINO,1966347,CHICAGO,IL,Pass,-87.69733595,41.93928538,20161013,Risk 3 (Low),(41.93928538446442 -87.69733595145591),2488875,Restaurant,2755 W BELMONT AVE ,License,PISOLINO,60618
GIFT 4 KIDS DAYCARE,1966340,CHICAGO,IL,Fail,-87.65480912,41.69209807,20161013,Risk 1 (High),(41.6920980711081 -87.6548091189968),2341291,Daycare Above and Under 2 Years,1305-1307 W 111TH ST ,License,GIFT 4 KIDS DAYCARE CENTER LLC,60643
ATLANTIS RESTAURANT,1966336,CHICAGO,IL,Pass,-87.77505861,41.90937012,20161013,Risk 2 (Medium),(41.90937011570691 -87.77505860847639),2493038,Restaurant,5952 W NORTH AVE ,License,ATLANTIS SERVICES,60639
PISOLINO,1966338,CHICAGO,IL,Pass,-87.69733595,41.93928538,20161013,Risk 1 (High),(41.93928538446442 -87.69733595145591),2488830,Restaurant,2755 W BELMONT AVE ,License,PISOLINO,60618
TIFFANY'S NUTRITION CLUB,1966333,CHICAGO,IL,Pass,-87.71382962,41.74128282,20161013,Risk 2 (Medium),(41.74128282135388 -87.71382961609703),2470494,Restaurant,3645 W 83RD PL ,License Re-Inspection,TIFFANY'S NUTRITION CLUB,60652
LINDYS AND GERTIES ORIGINAL,1955283,CHICAGO,IL,Fail,-87.68323709,41.8268122,20161012,Risk 1 (High),(41.82681219988024 -87.68323708639228),2423372,Restaurant,3685 S ARCHER AVE ,Canvass,LINDYS AND GERTIES ORIGINAL,60609
JJ FISH,1966320,CHICAGO,IL,Pass,-87.59237387,41.80979548,20161011,Risk 2 (Medium),(41.80979548271692 -87.59237386663331),2432218,Restaurant,1400 E 47TH DR ,Short Form Complaint,J & J FISH & CHICKEN,60653
THE GOODMAN THEATRE,1951270,CHICAGO,IL,Fail,-87.62962434,41.88514243,20161011,Risk 3 (Low),(41.88514242565978 -87.62962433514399),2488675,RESTAURANT/BAR/THEATER,170 N DEARBORN ST ,License,THE GOODMAN THEATRE,60601
BEEF CHIEF,1966316,CHICAGO,IL,Pass,-87.62520901,41.72223201,20161011,Risk 1 (High),(41.72223200529753 -87.62520901436761),2397526,Restaurant,9440 S LAFAYETTE AVE ,Complaint,BEEF CHIEF,60620
TARGET,1746317,CHICAGO,IL,Pass,-87.59376104,41.79959787,20161011,Risk 2 (Medium),(41.79959786938958 -87.59376103688076),2469768,Grocery Store,1330 E 53RD ST ,License Re-Inspection,TARGET STORE T-3219,60615
TEAVANA #28346,1966315,CHICAGO,IL,Pass,-87.62396132,41.89774086,20161011,Risk 3 (Low),(41.897740856252504 -87.62396131598219),2469710,Restaurant,835 N MICHIGAN AVE ,License Re-Inspection,TEAVANA #28346,60611
GALVIN'S PUBLIC HOUSE,1966312,CHICAGO,IL,Fail,-87.77493763,41.96757484,20161011,Risk 1 (High),(41.96757484163005 -87.77493763409912),1069298,Restaurant,5901 W LAWRENCE AVE ,Canvass,GALVIN'S PUBLIC HOUSE,60630
FALAFEL & GRILL,1966307,CHICAGO,IL,Pass,-87.66992733,41.90570563,20161011,Risk 1 (High),(41.90570562807067 -87.66992733011313),2129302,Restaurant,1317 N MILWAUKEE AVE ,Complaint,FALAFEL & GRILL,60622
WING HOE RESTAURANT,1966314,CHICAGO,IL,Pass,-87.65522996,41.97985841,20161011,Risk 1 (High),(41.979858413283644 -87.65522995685036),80273,Restaurant,5356 N SHERIDAN RD ,Complaint Re-Inspection,WING HOE RESTAURANT,60640
PAPA JOHN'S PIZZA,1955282,CHICAGO,IL,Pass,-87.62389568,41.85297383,20161011,Risk 2 (Medium),(41.85297382613197 -87.6238956826966),2341071,Restaurant,80 E CERMAK RD ,Canvass Re-Inspection,PAPA JOHN'S PIZZA,60616
DOROTHY SUTTON BRANCH HEADSTART,1966297,CHICAGO,IL,Pass,-87.62404406,41.73814999,20161011,Risk 1 (High),(41.73814999078905 -87.6240440559754),2215694,Children's Services Facility,8601 S STATE ST ,License,DOROTHY SUTTON BRANCH HEADSTART,60619
JJ FISH & GROCERY,1966302,CHICAGO,IL,Fail,-87.69296412,41.76443109,20161011,Risk 2 (Medium),(41.764431087792644 -87.69296412238828),2341091,RESTAURANT/GROCERY STORE,2759 W 71ST ST ,Complaint Re-Inspection,JJ FISH & GROCERY INC.,60629
CERMAK PRODUCE,1966293,CHICAGO,IL,Pass,-87.67584785,41.8313499,20161011,Risk 1 (High),(41.83134990007708 -87.67584784785943),1649774,Grocery Store,3435 S ARCHER AVE ,Short Form Complaint,CERMAK PRODUCE #5 LTD,60608
BEEZEE,1953288,CHICAGO,IL,Pass,-87.6261892,41.87635127,20160829,Risk 1 (High),(41.87635126679324 -87.62618919572564),2078906,Restaurant,424 S WABASH AVE ,Canvass,BEEZEE,60605
I DREAM OF FALAFEL,1966286,CHICAGO,IL,Pass w/ Conditions,-87.64183898,41.88044791,20161011,Risk 1 (High),(41.88044790879155 -87.64183897534404),2092894,Restaurant,555 W MONROE ST ,Complaint,I DREAM OF FALAFEL,60661
FAT BOYS MART,1966282,CHICAGO,IL,Pass,-87.68614996,41.77911271,20161011,Risk 3 (Low),(41.779112711099536 -87.68614996112841),2492320,Grocery Store,2501 W 63RD ST ,License Re-Inspection,FAT BOYS MART,60629
THE RENAISSANCE AT SOUTH SHORE,1966284,CHICAGO,IL,Pass,empty,empty,20161011,Risk 1 (High),empty,2219946,Long Term Care,2425 E 71ST ST ,Complaint,THE RENAISSANCE AT SOUTH SHORE,60649
MARGARITA'S RESTAURANT,1746315,CHICAGO,IL,Pass,-87.64336385,41.80901096,20161011,Risk 1 (High),(41.80901096180861 -87.64336385382629),2492154,Restaurant,704 W 47TH ST ,License,MARGARITA'S RESTAURANT,60609
PATERNO'S PIZZA,1966278,CHICAGO,IL,Pass,-87.76848375,41.97674884,20161011,Risk 1 (High),(41.97674883897886 -87.76848375312518),36411,Restaurant,5303 N MILWAUKEE AVE ,Canvass Re-Inspection,PATERNO'S PIZZA,60630
RAEKWON'S SCHOLASTIC DAYCARE ACADEMY LLC,1966274,CHICAGO,IL,Pass,-87.62995399,41.75074708,20161011,Risk 1 (High),(41.75074707800666 -87.62995398947167),2220015,Children's Services Facility,211-215 W 79TH ST ,License Re-Inspection,RAEKWON'S SCHOLASTIC DAYCARE ACADEMY LLC,60620
Dewey CPC,1955281,CHICAGO,IL,Fail,-87.64191534,41.79538643,20161011,Risk 1 (High),(41.79538642870011 -87.64191534235891),22952,School,638 W 54th Place (5432S) ,Canvass,Dewey CPC,60609
Sarpino's Pizzeria,1966265,CHICAGO,IL,Pass,-87.78952154,41.90920473,20161011,Risk 1 (High),(41.909204732366376 -87.78952154054107),2432024,Restaurant,6526 W NORTH AVE ,Complaint,Sarpino's Pizza,60707
LA SERENA,1938165,CHICAGO,IL,Out of Business,-87.70133427,41.78616917,20160707,Risk 1 (High),(41.78616917355217 -87.70133427063364),42014,Restaurant,3109 W 59TH ST ,Canvass,LA SERENA,60629
NO. 1 CHINA EXPRESS,1966270,CHICAGO,IL,Pass w/ Conditions,-87.63134627,41.81683377,20161011,Risk 1 (High),(41.816833769262814 -87.6313462733625),2068972,Restaurant,4248 S WENTWORTH AVE ,Complaint,NO. 1 CHINA EXPRESS,60609
CARNIVALE,1966264,CHICAGO,IL,Pass w/ Conditions,-87.65879786,41.85045102,20161011,Risk 2 (Medium),(41.85045102427 -87.65879785567869),2476454,Mobile Food Preparer,2300 S THROOP ST ,License,CARNIVALE,60608
SU CASA,1966268,CHICAGO,IL,Fail,-87.62617281,41.89319256,20161011,Risk 1 (High),(41.89319255965124 -87.62617281400281),1194932,Restaurant,49 E ONTARIO ST ,Complaint,SU CASA,60611
ANDY'S DELI & BAKERY,1966261,CHICAGO,IL,Pass w/ Conditions,-87.77241939,41.98060129,20161011,Risk 1 (High),(41.98060128548532 -87.77241939396974),1818511,Bakery,5454 N MILWAUKEE AVE ,Canvass,ANDY'S DELI & BAKERY,60630
MADISON & VINE WINES,1966258,CHICAGO,IL,Pass,-87.66123089,41.88165939,20161011,Risk 3 (Low),(41.8816593852002 -87.66123088985559),2469570,Restaurant,1340 W MADISON ST ,License,MADISON & VINE WINES,60607
ALL ABOUT KIDS LEARNING ACADEMY,1966257,CHICAGO,IL,Pass,-87.61245074,41.7585668,20161011,Risk 1 (High),(41.758566800153645 -87.61245073862713),2384881,Children's Services Facility,504-516 E 75TH ST ,License,ALL ABOUT KIDS LEARNING ACADEMY,60619
FLIRTY CUPCAKES,1966199,CHICAGO,IL,Pass,-87.65234902,41.86959707,20161007,Risk 3 (Low),(41.86959706650426 -87.6523490175014),2211521,Mobile Food Dispenser,1030 W TAYLOR ST ,License,FLIRTY CUPCAKES,60607
ANGELS 'R' US KIDZ ACADEMY INC,1746314,CHICAGO,IL,Fail,-87.62142025,41.82237019,20161011,Risk 1 (High),(41.82237019007892 -87.62142025266414),2216065,Daycare (2 - 6 Years),3941-3943 S INDIANA AVE ,License,ANGELS 'R' US KIDZ ACADEMY INC,60653
BUSY BEES LEARNING SCHOOL INC.,1966249,CHICAGO,IL,Fail,-87.63491823,41.83808438,20161011,Risk 1 (High),(41.83808437961537 -87.63491822933265),2446175,Children's Services Facility,319-325 W 31ST ST ,License,BUSY BEES LEARNING SCHOOL INC.,60616
BELMONTE CUT RATE LIQUORS,1966247,CHICAGO,IL,Fail,-87.75962331,41.89500849,20161011,Risk 3 (Low),(41.89500849227852 -87.7596233106205),2452397,Grocery Store,5336 W CHICAGO AVE ,License,BELMONTE FOOD WINE & SPIRITS INC.,60651
THE QUARRY EVENT CENTER,1966246,CHICAGO,IL,Pass,-87.56565795,41.75888652,20161011,Risk 1 (High),(41.75888651800864 -87.56565795329745),2261711,Restaurant,2419-2425 E 75TH ST ,Complaint,THE QUARRY EVENT CENTER,60649
Dewey,1955280,CHICAGO,IL,Fail,empty,empty,20161011,Risk 1 (High),empty,22951,School,5415 S Union(700W) AVE ,Canvass,Dewey,60609
LOVE N LEARN ACADEMY INC,1966240,CHICAGO,IL,Pass,-87.60685482,41.7584451,20161011,Risk 1 (High),(41.758445099922916 -87.60685482283574),2215874,Children's Services Facility,723-725 E 75TH ST ,License,LOVE N LEARN ACADEMY INC,60619
DUNKIN DONUTS,1951269,CHICAGO,IL,Pass,-87.62047604,41.88462378,20161011,Risk 2 (Medium),(41.88462378463585 -87.62047604442976),1575339,Restaurant,300 E RANDOLPH ST ,Complaint,DUNKIN DONUTS,60601
Fulton,1955278,CHICAGO,IL,Pass,-87.66847093,41.79754288,20161007,Risk 1 (High),(41.79754287754963 -87.66847093405492),23281,School,5300 S Hermitage (1732W) ,Canvass,Fulton,60609
ED'S POTSTICKER HOUSE,1947082,CHICAGO,IL,Fail,-87.64610298,41.83692677,20160725,Risk 1 (High),(41.8369267740749 -87.64610297583852),1474614,Restaurant,3139 S HALSTED ST ,Complaint,POTSTICKER HOUSE INC.,60608
BELMONTE CUT RATE LIQUORS,1966242,CHICAGO,IL,Fail,-87.75962331,41.89500849,20161011,Risk 3 (Low),(41.89500849227852 -87.7596233106205),2452394,Grocery Store,5336 W CHICAGO AVE ,License,BELMONTE FOOD WINE & SPIRITS INC.,60651
APPLE FARM FOODS,1966235,CHICAGO,IL,Pass,-87.61538512,41.68529176,20161011,Risk 2 (Medium),(41.68529176021134 -87.61538511891474),2032194,Grocery Store,305 E 115TH ST ,Complaint Re-Inspection,APPLE FARM FOODS,60628
RIDGEVIEW REHAB & NURSING CENTER,1966229,CHICAGO,IL,Pass w/ Conditions,-87.67761046,41.99930759,20161011,Risk 1 (High),(41.999307593459875 -87.67761046424103),2218497,Long Term Care,6450 N RIDGE BLVD ,Canvass Re-Inspection,RIDGEVIEW REHAB & NURSING CENTER,60626
LA FINCA MARKET INC.,1966232,CHICAGO,IL,Pass,-87.71426895,41.95394706,20161011,Risk 3 (Low),(41.953947062790945 -87.71426895274858),2492970,Grocery Store,3432 W IRVING PARK RD ,License,LA FINCA MARKET INC.,60618
THE P BERRY CAFE,1966224,CHICAGO,IL,Fail,-87.6174801,41.83195818,20161007,Risk 2 (Medium),(41.831958178116174 -87.61748009800107),2482916,Restaurant,3428 S DR MARTIN LUTHER KING JR DR ,License,THE P BERRY CAFE,60616
OAKDALE CHRISTIAN ACADEMY CHURCH,1966220,CHICAGO,IL,Pass,-87.65055932,41.72204014,20161007,Risk 1 (High),(41.72204014216829 -87.6505593222795),2215628,Daycare (2 - 6 Years),9440 S VINCENNES AVE ,License,OAKDALE CHRISTIAN ACADEMY CHURCH,60620
CLOCK TOWER CAFE,1966203,CHICAGO,IL,Pass w/ Conditions,-87.64303425,41.94886557,20161007,Risk 1 (High),(41.9488655712457 -87.64303424515734),2055272,Restaurant,3600 N RECREATION DR ,Short Form Complaint,SYDNEY MAROVITZ GOLF COURSE,60613
HAROLD'S CHICKEN SHACK,1966218,CHICAGO,IL,Fail,-87.63005895,41.76126021,20161007,Risk 2 (Medium),(41.76126021386328 -87.63005894785265),2488931,Restaurant,7318 S VINCENNES AVE ,License Re-Inspection,HAROLDS'S CHICKEN SHACK,60621
SHAW'S CRAB HOUSE,1966211,CHICAGO,IL,Pass,-87.62707477,41.88997109,20161007,Risk 1 (High),(41.889971085414004 -87.6270747744828),9278,Restaurant,21 E HUBBARD ST ,Complaint,SHAW'S CRAB HOUSE,60611
ST JOSEPH CHILD CARE,1955279,CHICAGO,IL,Pass,-87.66749696,41.80666561,20161007,Risk 1 (High),(41.806665605305 -87.6674969634789),2215752,Children's Services Facility,4800 S PAULINA ST ,Canvass,ST JOSEPH CHILD CARE,60609
GARRETT POPCORN SHOPS (T3 H2),1966210,CHICAGO,IL,Fail,-87.91442844,42.0085364,20161007,Risk 2 (Medium),(42.008536400868735 -87.91442843927047),1898075,Grocery Store,11601 W TOUHY AVE ,Canvass,GARRETT POPCORN SHOPS,60666
ROSELAND FOOD & LIQUOR,1966213,CHICAGO,IL,Pass w/ Conditions,-87.7113755,41.88080462,20161007,Risk 3 (Low),(41.8808046152 -87.71137549591673),2283476,Grocery Store,3407 W MADISON ST ,Complaint Re-Inspection,ROSELAND FOOD & LIQUOR,60624
JAMAICAN ME HUNGRY,1966205,CHICAGO,IL,Pass,-87.66325181,41.74862471,20161007,Risk 1 (High),(41.74862470541784 -87.66325181074512),2484104,Restaurant,7959 S ASHLAND AVE ,License,JAMAICAN ME HUNGRY,60620
MARKET ON HOWARD LLC,1966188,CHICAGO,IL,Not Ready,-87.6728975,42.01844815,20161007,Risk 2 (Medium),(42.01844814876268 -87.67289749839928),2492710,Grocery Store,7519 N PAULINA ST ,License,MARKET ON HOWARD LLC,60626
LEONA'S PIZZERIA,1966183,CHICAGO,IL,Pass,-87.66150962,42.00788364,20161007,Risk 1 (High),(42.0078836440726 -87.66150961632322),2313630,Restaurant,6935 N SHERIDAN RD ,Complaint,LEONA'S PIZZERIA,60626
MCDONALD'S,1966176,CHICAGO,IL,Fail,-87.68338584,41.77511657,20161007,Risk 2 (Medium),(41.775116565908775 -87.68338583887078),1874347,Restaurant,6515 S WESTERN AVE ,Complaint,MCDONALD'S,60636
HOT WOKS COOL SUSHI,1966173,CHICAGO,IL,Pass,-87.63531103,41.87947786,20161007,Risk 1 (High),(41.87947785944255 -87.63531102568936),2016725,Restaurant,300 W ADAMS ST ,Complaint Re-Inspection,HOT WOKS COOL SUSHI,60606
HAROLD'S CHICKEN,1966178,CHICAGO,IL,Pass w/ Conditions,-87.64764601,41.8832528,20161007,Risk 2 (Medium),(41.883252799966726 -87.64764601387161),2385161,Restaurant,804 W WASHINGTON BLVD ,Short Form Complaint,HAROLD'S CHICKEN,60607
STELLA BARRA/SUMMER HOUSE SANTA MONICA,1966172,CHICAGO,IL,Fail,-87.64862901,41.91754113,20161007,Risk 1 (High),(41.91754112681401 -87.6486290102714),2234204,Restaurant,1954 N HALSTED ST ,Complaint Re-Inspection,SUMMER HOUSE SANTA MONICA/STELLA BARRA PIZZERIA,60614
JENKINS INSTITUTE OF LOVE,1966170,CHICAGO,IL,Pass,-87.60458211,41.7327677,20161007,Risk 1 (High),(41.73276769817549 -87.60458211171219),2215864,Daycare Above and Under 2 Years,8907 S COTTAGE GROVE AVE ,Canvass,JENKINS INSTITUTE OF LOVE,60619
ALEXANDER'S RESTAURANT,1966162,CHICAGO,IL,Pass,-87.67029582,41.99439118,20161007,Risk 1 (High),(41.994391180074615 -87.67029582459736),10916,Restaurant,6158 N CLARK ST ,Complaint,ALEXANDER'S RESTAURANT,60660
VIDA EN EXCELENCIA,1955276,CHICAGO,IL,No Entry,-87.66901037,41.80867512,20161006,Risk 2 (Medium),(41.808675123222294 -87.66901037222631),2270454,Grocery Store,1740 W 47TH ST ,Canvass,VIDA EN EXCELENCIA,60609
STELLA BARRA/SUMMER HOUSE SANTA MONICA,1966124,CHICAGO,IL,Fail,-87.64862901,41.91754113,20161006,Risk 1 (High),(41.91754112681401 -87.6486290102714),2234204,Restaurant,1954 N HALSTED ST ,Complaint,SUMMER HOUSE SANTA MONICA/STELLA BARRA PIZZERIA,60614
SUBWAY,1966156,CHICAGO,IL,Pass,-87.64930844,41.92568535,20161007,Risk 1 (High),(41.925685346472875 -87.6493084392509),2492766,Restaurant,2412 N LINCOLN AVE ,License,SUBWAY,60614
FULTON MARKET KITCHEN,1966153,CHICAGO,IL,Pass,-87.65087023,41.88711459,20161007,Risk 1 (High),(41.887114585601694 -87.65087022605566),2277545,Restaurant,311 N SANGAMON ST ,Complaint Re-Inspection,FULTON MARKET KITCHEN,60607
McDONALD'S,1966151,CHICAGO,IL,Out of Business,-87.64180803,41.88173752,20161007,Risk 2 (Medium),(41.88173751621169 -87.6418080251031),1969970,Restaurant,555 W MADISON ST ,Canvass,McDONALD'S,60661
Thomas Velma ECC,1955277,CHICAGO,IL,Pass,empty,empty,20161007,Risk 1 (High),empty,26891,School,3625 S Hoyne (2100W) (St. Maurice) ,Canvass,Thomas Velma ECC,60609
DELTA SKY  CLUB  (T2-E05),1966143,CHICAGO,IL,Fail,-87.91442844,42.0085364,20161007,Risk 1 (High),(42.008536400868735 -87.91442843927047),1356711,Restaurant,11601 W TOUHY AVE ,Canvass,DELTA SKY CLUB,60666
SMILEY FOOD MART,1966145,CHICAGO,IL,Fail,-87.65479263,41.78520789,20161007,Risk 2 (Medium),(41.78520789016766 -87.65479262521927),2482962,Grocery Store,5958 S RACINE AVE ,License,SMILEY FOOD,60636
LOS CANTARITOS GRILL,1966144,CHICAGO,IL,Pass,-87.71777242,41.90987048,20161007,Risk 1 (High),(41.909870483907774 -87.71777241780032),2492749,Restaurant,3625 W NORTH AVE ,License,LOS CANTARITOS GRILL INC,60647
4 YOLKS,1966137,CHICAGO,IL,Pass,-87.80628007,41.92888333,20161007,Risk 1 (High),(41.92888332655037 -87.806280071214),2307773,Restaurant,2659-2661 N HARLEM AVE ,Complaint,4 YOLKSINC.,60707
BIG TOP RESTAURANT,1966132,CHICAGO,IL,Pass,-87.78699375,41.97612328,20161007,Risk 1 (High),(41.976123282812146 -87.78699375091075),3752,Restaurant,6348 W HIGGINS AVE ,Short Form Complaint,BIG TOP RESTAURANT,60630
MEHRAB SUPER MARKE,1966117,CHICAGO,IL,Pass,-87.6911627,41.99759945,20161006,Risk 2 (Medium),(41.99759944782518 -87.69116270116571),2179855,Grocery Store,2433 W DEVON AVE ,Complaint Re-Inspection,MEHRAB SUPER MARKET,60659
RENALDI'S PIZZA,1966119,CHICAGO,IL,Fail,-87.64454293,41.93353571,20161006,Risk 1 (High),(41.933535705306504 -87.64454292702328),2252464,Restaurant,2827-2831 N BROADWAY ,Complaint,RENALDI'S PIZZA,60657
YOLIS TAMALES,1955275,CHICAGO,IL,Pass,-87.68441497,41.80281073,20161006,Risk 3 (Low),(41.80281073000951 -87.68441497424678),2492637,Mobile Prepared Food Vendor,5002 S WESTERN AVE ,License,YOLIS TAMALES,60609
RAW BAR & GRILL,1966109,CHICAGO,IL,Pass,-87.65860702,41.94959069,20161006,Risk 1 (High),(41.94959069063464 -87.65860701972706),19444,Restaurant,3720 N CLARK ST ,Complaint,RAW BAR & GRILL,60613
ROCKY MOUNTAIN CHOCOLATE FACTORY (T1 B14),1966107,CHICAGO,IL,Pass,-87.91442844,42.0085364,20161006,Risk 2 (Medium),(42.008536400868735 -87.91442843927047),1926528,Grocery Store,11601 W TOUHY AVE ,Canvass,ROCKY MOUNTAIN CHOCOLATE FACTORY,60666
SERVE TE AND SHAKES,1966101,CHICAGO,IL,Pass,-87.70379859,41.81450736,20161006,Risk 2 (Medium),(41.81450736444446 -87.70379859004622),2488944,HERBALIFE,4342 S ARCHER AVE ,License Re-Inspection,SERVE TE AND SHAKES,60632
MONTEALBAN,1966100,CHICAGO,IL,Pass,-87.77632683,41.92392648,20161006,Risk 1 (High),(41.923926483609236 -87.77632683025247),2492802,Restaurant,6012 W FULLERTON AVE ,License,MONTEALBAN,60639
ANGELS 'R' US KIDZ ACADEMY INC,1966040,CHICAGO,IL,Pass,-87.62142025,41.82237019,20161006,Risk 1 (High),(41.82237019007892 -87.62142025266414),2216065,Daycare (2 - 6 Years),3941-3943 S INDIANA AVE ,License,ANGELS 'R' US KIDZ ACADEMY INC,60653
ABOUNDANCE OF LOVE DAY CARE,1950646,CHICAGO,IL,No Entry,-87.6060219,41.77793756,20160818,Risk 1 (High),(41.77793756185611 -87.60602189591252),2215914,Children's Services Facility,6420-6422 S COTTAGE GROVE AVE ,Canvass,ABOUNDANCE OF LOVE DAY CARE,60637
HOT WOKS COOL SUSHI,1966096,CHICAGO,IL,Fail,-87.63531103,41.87947786,20161006,Risk 1 (High),(41.87947785944255 -87.63531102568936),2016725,Restaurant,300 W ADAMS ST ,Complaint,HOT WOKS COOL SUSHI,60606
JAMBA JUICE (T1/B7),1966089,CHICAGO,IL,Pass,-87.91442844,42.0085364,20161006,Risk 2 (Medium),(42.008536400868735 -87.91442843927047),15531,Restaurant,11601 W TOUHY AVE ,Canvass,JAMBA JUICE,60666
ACRE/OMBRA ITALIAN BAR,1966087,CHICAGO,IL,Pass,-87.66848427,41.97834206,20161006,Risk 1 (High),(41.978342059241015 -87.66848426596569),1167481,Restaurant,5308-5310 N CLARK ST ,Complaint,ACRE/OMBRA,60640
DUNKIN DONUT,1966084,CHICAGO,IL,Fail,-87.65915456,41.98352906,20161006,Risk 2 (Medium),(41.98352906115736 -87.65915456081615),28690,Restaurant,1127 W BRYN MAWR AVE ,Short Form Complaint,DUNKIN DONUT,60660
MEME WOK,1966085,CHICAGO,IL,Pass,-87.74138476,41.75466012,20161006,Risk 1 (High),(41.75466012439374 -87.74138475860521),2492533,Restaurant,7601 S CICERO AVE ,License,MEME WOK,60652
MEME WOK,1966081,CHICAGO,IL,Out of Business,-87.74138476,41.75466012,20161006,Risk 1 (High),(41.75466012439374 -87.74138475860521),2364314,Restaurant,7601 S CICERO AVE ,Canvass,MEME WOK,60652
ARCHER AVENUE LEARNING STATION INC,1955274,CHICAGO,IL,Pass,-87.67971509,41.82898408,20161006,Risk 1 (High),(41.82898408178605 -87.67971508964543),2216028,DAYCARE 1023,3575 S ARCHER AVE ,Canvass,ARCHER AVENUE LEARNING STATION INC,60609
TARGET,1966046,CHICAGO,IL,Fail,-87.59376104,41.79959787,20161006,Risk 2 (Medium),(41.79959786938958 -87.59376103688076),2469768,Grocery Store,1330 E 53RD ST ,License Re-Inspection,TARGET STORE T-3219,60615
HUB'S GYROS II,1966083,CHICAGO,IL,Pass,-87.6938395,41.98222979,20161006,Risk 1 (High),(41.98222979264743 -87.69383949704255),6503,Restaurant,5540 N LINCOLN AVE ,Complaint,HUB'S GYROS II INC,60625
JIMMY'S FAMOUS BURGERS,1966080,CHICAGO,IL,Pass,-87.60656852,41.80280093,20161006,Risk 2 (Medium),(41.802800927369866 -87.6065685227128),2492364,Restaurant,5042 S COTTAGE GROVE AVE ,License Re-Inspection,JIMMY'S FAMOUS BURGERS,60615
bUNDOO KHAN,1966073,CHICAGO,IL,Pass,-87.69377018,41.99755417,20161006,Risk 1 (High),(41.99755417277127 -87.69377017915909),2397077,Restaurant,2537-2539 W DEVON AVE ,Complaint,BUNDOO KHAN,60659
EDIBLE ARRANGEMENTS,1966072,CHICAGO,IL,Fail,-87.67580162,42.01928994,20161006,Risk 2 (Medium),(42.019289941587736 -87.67580161669515),2074321,Restaurant,1783 W HOWARD ST ,Short Form Complaint,EDIBLE ARRANGEMENTS #1250,60626
MARTINEZ SUPERMARKET INC,1966074,CHICAGO,IL,Pass,-87.65091517,41.83474332,20161006,Risk 1 (High),(41.83474332305238 -87.65091517105847),2437247,Grocery Store,3301 S MORGAN ST ,Canvass Re-Inspection,MARTINEZ SUPERMARKET INC,60608
SUBWAY,1966041,CHICAGO,IL,Pass,-87.71288467,41.96851446,20161006,Risk 1 (High),(41.96851446149223 -87.712884665478),2068996,Restaurant,3348 W LAWRENCE AVE ,Short Form Complaint,SUBWAY,60625
CHURCH'S CHICKEN # 1053,1965695,CHICAGO,IL,Pass,-87.71938879,41.86651663,20160930,Risk 2 (Medium),(41.866516631905256 -87.71938879163898),1273275,Restaurant,1151 S INDEPENDENCE BLVD ,Short Form Complaint,CHURCH'S CHICKEN # 1053,60624
MORGAN STREET CAFE,1966069,CHICAGO,IL,Fail,-87.65183157,41.88004797,20161006,Risk 1 (High),(41.880047970125254 -87.65183157127098),1595203,Restaurant,111 S MORGAN ST ,Complaint,MORGAN STREET CAFE,60607
MR. TACO'S RESTAURANT,1966053,CHICAGO,IL,Pass w/ Conditions,-87.66883075,41.89615776,20161006,Risk 1 (High),(41.8961577553467 -87.66883075218063),2074632,Restaurant,1640 W CHICAGO AVE ,Suspected Food Poisoning,MR. TACO'S RESTAURANT,60622
THE GROVE/ SMOOTHIE KING  (T1  B6),1966052,CHICAGO,IL,Pass,-87.91442844,42.0085364,20161006,Risk 2 (Medium),(42.008536400868735 -87.91442843927047),1926527,Restaurant,11601 W TOUHY AVE ,Canvass,THE GROVE,60666
I Learn Center of Chicago,1966055,CHICAGO,IL,Pass w/ Conditions,-87.66846833,41.93018915,20161006,Risk 1 (High),(41.93018914881091 -87.6684683252167),2229462,Daycare Above and Under 2 Years,2650 N Ashland AVE ,Canvass,I Learn Center of Chicago,60614
SNAP KITCHEN,1966048,CHICAGO,IL,Fail,-87.66976711,41.88314295,20161006,Risk 1 (High),(41.88314294811615 -87.66976710838105),2404720,Catering,1709 W WASHINGTON BLVD ,Complaint,SNAP KITCHEN,60612
AIR FORCE ACADEMY,1955273,CHICAGO,IL,Pass,-87.63279369,41.82814609,20161006,Risk 1 (High),(41.82814608618307 -87.63279369197866),2224884,School,3630 S WELLS ST ,Canvass,AIR FORCE ACADEMY,60609
SAUGANASH SCHOOL FOR THE YOUNG YEARS,1965885,empty,IL,Not Ready,-87.74242662,41.98985673,20161004,Risk 3 (Low),(41.98985673339672 -87.74242662401299),2364330,Children's Services Facility,4541 W PETERSON AVE ,License,SAUGANASH SCHOOL FOR THE YOUNG YEARS,60646
KINDRED CHICAGO-LAKESHORE,1966035,CHICAGO,IL,Pass,-87.65563353,41.99326388,20161006,Risk 1 (High),(41.99326388349249 -87.65563353046953),2206263,Hospital,6130 N SHERIDAN RD ,Canvass,KINDRED CHICAGO-LAKESHORE,60660
WABI SABI ROTARY,1966036,CHICAGO,IL,Fail,-87.65462704,41.96433623,20161006,Risk 1 (High),(41.964336225778 -87.6546270434299),2492706,Restaurant,4521 N SHERIDAN RD ,License,WABI SABI ROTARY,60640
SUBWAY,1966031,CHICAGO,IL,Pass,-87.71288467,41.96851446,20161006,Risk 1 (High),(41.96851446149223 -87.712884665478),2068996,Restaurant,3348 W LAWRENCE AVE ,Complaint Re-Inspection,SUBWAY,60625
FAIRPLAY FINER FOOD,1966029,CHICAGO,IL,Pass,-87.6857857,41.85198384,20161006,Risk 1 (High),(41.85198383957328 -87.68578570420526),10940,Grocery Store,2200 S WESTERN AVE ,Short Form Complaint,FAIRPLAY FINER FOOD,60608
empty,1951264,CHICAGO,IL,Pass,-87.62641329,41.8853537,20161006,Risk 1 (High),(41.885353703982936 -87.62641328540737),2483647,Restaurant,180 N WABASH AVE ,License Re-Inspection,Capriotti's Sandwich Shop,60601
418 FAMILY CHILDCARE CENTER,1966335,CHICAGO,IL,Out of Business,-87.65460338,41.9619503,20161006,Risk 1 (High),(41.961950302699556 -87.65460337596932),2216199,Daycare Combo 1586,4405-4407 N SHERIDAN RD ,Canvass,418 FAMILY CHILDCARE CENTER,60640
FAT BOYS MART,1966027,CHICAGO,IL,Fail,-87.68614996,41.77911271,20161006,Risk 3 (Low),(41.779112711099536 -87.68614996112841),2492320,Grocery Store,2501 W 63RD ST ,License,FAT BOYS MART,60629
JOHNNY'S ICE HOUSE,1966028,CHICAGO,IL,Pass,-87.66160473,41.88165389,20161006,Risk 2 (Medium),(41.8816538895371 -87.66160472806487),72432,Restaurant,1350 W MADISON ST ,Short Form Complaint,JOHNNY'S ICE HOUSE,60607
SUSUPUATO RESTAURANT & TAQUERIA,1966019,CHICAGO,IL,Pass,-87.66024611,41.99409183,20161006,Risk 1 (High),(41.99409182900129 -87.66024611480584),30901,Restaurant,6161 N BROADWAY ,Canvass Re-Inspection,SUSUPUATO RESTAURANT & TAQUERIA,60660
LOS GAMAS TORTILLAS Y RESTORANTE,1966020,CHICAGO,IL,Pass,-87.71165855,41.91723545,20161006,Risk 1 (High),(41.91723544708353 -87.71165855157675),2423902,Restaurant,3333 W ARMITAGE AVE ,Complaint Re-Inspection,ELVIA GAMA,60647
THE TWISTED VINE,1966128,CHICAGO,IL,Pass,-87.64960235,41.9463223,20161005,Risk 2 (Medium),(41.94632229643331 -87.64960234672562),2179747,Restaurant,3530 N HALSTED ST ,Canvass,THE TWISTED VINE,60657
LITTLE ANGELS FAMILY DAYCARE,1955272,CHICAGO,IL,Pass,-87.64310796,41.77240524,20161005,Risk 1 (High),(41.77240524117657 -87.64310796196668),2215839,Daycare Above and Under 2 Years,6701 S EMERALD AVE ,Canvass,LITTLE ANGELS FAMILY DAYCARE,60621
CAFE ORIENT 33,1966016,CHICAGO,IL,Out of Business,-87.70835645,41.96933589,20161005,Risk 1 (High),(41.96933589360574 -87.7083564494656),2269908,Restaurant,4829 N KEDZIE AVE ,Canvass,CAFE ORIENT 33 INC,60625
empty,1966010,Chicago,IL,Not Ready,-87.65992581,41.97306821,20161005,empty,(41.97306821306215 -87.65992580689424),2458787,empty,5010 N BROADWAY ,License,BAMBU DESSERTS AND DRINKS,60640
empty,1966003,CHICAGO,IL,Pass,-87.62450498,41.88026337,20161005,Risk 2 (Medium),(41.88026337218459 -87.62450498038699),2477130,Restaurant,122 S Michigan AVE BLDG ,License,ICANDY SUGAR SHOPPE,60603
DUNKIN DONUTS/BASKIN ROBBINS,1966002,CHICAGO,IL,Pass,-87.78687691,41.99609842,20161005,Risk 2 (Medium),(41.9960984214 -87.7868769104594),64722,Restaurant,6342 N MILWAUKEE AVE ,Complaint Re-Inspection,DUNKIN DONUTS/BASKIN ROBBINS,60646
TKVD/KARLAS KITCHEN,1966004,CHICAGO,IL,Pass,-87.72518069,41.87031344,20161005,Risk 1 (High),(41.870313437951935 -87.72518069082456),2492560,Restaurant,819 S PULASKI RD ,License Re-Inspection,TKVD/KARLAS KITCHEN,60624
ALONTI CATERING,1966005,CHICAGO,IL,Pass,-87.70378008,41.81369435,20161005,Risk 1 (High),(41.813694349665795 -87.70378008300666),2492552,Catering,3150 W 44TH ST ,License,ALONTI CATERING,60632
MIN'A'S MEXICAN HOME COOKING AND SNACKS,1966008,CHICAGO,IL,Pass,-87.65879786,41.85045102,20161005,Risk 2 (Medium),(41.85045102427 -87.65879785567869),2319938,Mobile Food Preparer,2300 S THROOP ST ,License,MIN'A'S MEXICAN HOME COOKING AND SNACKS,60608
APPEAL FOR CHARITIES/GOODWILL,1965999,CHICAGO,IL,Pass,-87.62682483,41.76555262,20161005,Risk 1 (High),(41.76555261652991 -87.62682483348057),2215565,Daycare (2 - 6 Years),50 W 71ST ST ,License,APPEAL FOR CHARITIES/GOODWILL,60621
CAFE ORIENT33,1966006,CHICAGO,IL,Pass,-87.70835645,41.96933589,20161005,Risk 1 (High),(41.96933589360574 -87.7083564494656),2492468,Restaurant,4829 N KEDZIE AVE ,License,CAFE ORIENT 33,60625
BIRRIERIA DE LA TORRE MEXICAN RESTAURANT,1965991,CHICAGO,IL,Pass,-87.72270419,41.77061934,20161005,Risk 1 (High),(41.77061934281714 -87.72270418892046),2492789,Restaurant,6724-6726 S PULASKI RD ,License,BIRRIERIA DE LA TORRE MEXICAN RESTAURANT,60629
IMPERIAL LAMIAN,1966000,CHICAGO,IL,Pass,-87.62824385,41.89017092,20161005,Risk 1 (High),(41.89017091785458 -87.62824385227027),2405743,Restaurant,6 W HUBBARD ST ,Complaint,IMPERIAL LAMIAN,60654
BIRRIERIA DE LA TORRE,1965990,CHICAGO,IL,Pass,-87.72270419,41.77061934,20161005,Risk 1 (High),(41.77061934281714 -87.72270418892046),1358563,Restaurant,6724-6726 S PULASKI RD ,Complaint,BIRRIERIA DE LA TORRE,60629
STAR GYROS,1965988,CHICAGO,IL,Pass,-87.71066733,41.86645727,20161005,Risk 2 (Medium),(41.866457268921884 -87.71066733173923),50600,Restaurant,3400 W ROOSEVELT RD ,Short Form Complaint,STAR GYROS,60624
WOK CUISINE,1965994,CHICAGO,IL,Pass,-87.70849944,41.96461176,20161005,Risk 1 (High),(41.96461176175771 -87.70849944208983),1496143,Restaurant,4554 N KEDZIE AVE ,Canvass,WOK CUISINE,60625
BETTER GOURMET RESTAURANT,1697216,CHICAGO,IL,Pass,-87.63199264,41.8552817,20161005,Risk 1 (High),(41.85528170377401 -87.63199264229414),2492555,Restaurant,2002 S WENTWORTH AVE ,License,BETTER GOURMET RESTAURANT,60616
AVENIDA DEL SABOR,1966539,CHICAGO,IL,Pass,-87.77134438,41.93109487,20161004,Risk 1 (High),(41.931094868682656 -87.77134438272313),2488459,Restaurant,5805 W DIVERSEY AVE,License,AVENIDA DEL SABOR,60639
ELI'S CHEESECAKE CHICAGO (T1  B9),1965979,CHICAGO,IL,Pass,-87.91442844,42.0085364,20161005,Risk 2 (Medium),(42.008536400868735 -87.91442843927047),34224,Restaurant,11601 W TOUHY AVE ,Canvass,ELI'S CHEESECAKE,60666
FIFTY FOUR ELEVEN,1965982,CHICAGO,IL,Pass,-87.64601179,41.9339798,20161005,Risk 2 (Medium),(41.933979804573255 -87.64601179219122),2293616,Mobile Food Dispenser,2850 N CLARK ST ,License Re-Inspection,FIFTY FOUR ELEVEN,60657
NEW LOVE TERIYAKI,1965975,CHICAGO,IL,Pass w/ Conditions,-87.69448432,41.82273508,20161005,Risk 1 (High),(41.82273507901569 -87.6944843232236),2114749,Restaurant,3901 S CALIFORNIA AVE ,Complaint Re-Inspection,NEW LOVE TERIYAKI,60632
MUGHAL INDIA RESTAURANT,1965974,CHICAGO,IL,Fail,-87.64198533,41.87684968,20161005,Risk 1 (High),(41.876849676938306 -87.64198533328084),2119771,Restaurant,560 W VAN BUREN ST ,Complaint,MUGHAL INDIA INC,60607
empty,1965973,CHICAGO,IL,Pass w/ Conditions,-87.65464368,41.96600833,20161005,Risk 1 (High),(41.96600833402895 -87.65464367873378),2204335,Long Term Care,4621 N SHERIDAN RD ,Canvass,GRASMERE PLACE LLC,60640
MARTINEZ SUPERMARKET INC,1965972,CHICAGO,IL,Fail,-87.65091517,41.83474332,20161005,Risk 1 (High),(41.83474332305238 -87.65091517105847),2437247,Grocery Store,3301 S MORGAN ST ,Canvass,MARTINEZ SUPERMARKET INC,60608
JEWEL FOOD STORE #3296,1965672,CHICAGO,IL,Fail,-87.81134688,41.97454295,20160930,Risk 1 (High),(41.97454294770947 -87.81134688421793),1392,Grocery Store,7342 W FOSTER AVE ,Complaint Re-Inspection,JEWEL FOOD STORE #3296,60656
LITTLE GEMS INTERNATIONAL,1965969,CHICAGO,IL,Pass,-87.6392867,41.9239063,20161005,Risk 1 (High),(41.92390630404291 -87.63928669557026),2216177,Daycare Above and Under 2 Years,2301 N CLARK ST ,License,LITTLE GEMS INTERNATIONAL (BELDEN)INC,60614
FRESH MARKET AT FAIRBANKS,1965964,CHICAGO,IL,Pass,-87.62077291,41.89589816,20161005,Risk 1 (High),(41.89589815739559 -87.62077291309295),1842888,Restaurant,250 E SUPERIOR ST ,Complaint,MORRISON MANAGEMENT SPECIALISTS,60611
WHITE CASTLE #26,1965963,CHICAGO,IL,Pass,-87.74189535,41.77854419,20161005,Risk 2 (Medium),(41.778544187675465 -87.74189535416622),28488,Restaurant,4750 W 63RD ST ,Complaint Re-Inspection,WHITE CASTLE #26,60629
PAPA JOHN'S PIZZA,1955271,CHICAGO,IL,Fail,-87.62389568,41.85297383,20161005,Risk 2 (Medium),(41.85297382613197 -87.6238956826966),2341071,Restaurant,80 E CERMAK RD ,Tag Removal,PAPA JOHN'S PIZZA,60616
AMAR FOODS,1965958,CHICAGO,IL,Pass,-87.61203766,41.77474041,20161005,Risk 2 (Medium),(41.77474041266132 -87.61203766276827),57568,Grocery Store,525 E MARQUETTE RD ,Canvass Re-Inspection,AMAR FOODS,60637
BRIOCHE DOREE CAFE (T1-B DEPARTURE),1965950,CHICAGO,IL,Pass,-87.91442844,42.0085364,20161005,Risk 2 (Medium),(42.008536400868735 -87.91442843927047),34218,Restaurant,11601 W TOUHY AVE ,Canvass,HOST INTERNATIONAL INC,60666
SUSUPUATO RESTAURANT & TAQUERIA,1965860,CHICAGO,IL,Fail,-87.66024611,41.99409183,20161004,Risk 1 (High),(41.99409182900129 -87.66024611480584),30901,Restaurant,6161 N BROADWAY ,Canvass,SUSUPUATO RESTAURANT & TAQUERIA,60660
NHU LAN BAKERY,1965947,CHICAGO,IL,Fail,-87.69436907,41.96867613,20161005,Risk 1 (High),(41.968676134286625 -87.69436906781544),1772039,Bakery,2612 W LAWRENCE AVE ,Complaint,NHU LAN BAKERY,60625
DO EAT,1965945,CHICAGO,IL,Pass,-87.64610208,41.83687198,20161005,Risk 1 (High),(41.836871979178554 -87.64610208451234),2492365,Restaurant,3141 S HALSTED ST ,License,DO EAT,60608
NEAR NORTH MONTESSORI SCHOOL,1965949,CHICAGO,IL,Pass,-87.66389435,41.9034967,20161005,Risk 1 (High),(41.90349669933936 -87.66389435422715),2215549,Children's Services Facility,1434 W DIVISION ST ,License,NEAR NORTH MONTESSORI SCHOOL,60642
COSTELLO'S  SANDWICHES,1965928,CHICAGO,IL,Out of Business,-87.68680134,41.96620157,20161005,Risk 1 (High),(41.96620156500102 -87.68680134395211),1986574,Restaurant,4647 N LINCOLN AVE ,Canvass,COSTELLO'S  SANDWICHES,60625
DUNKIN DONUTS,1965927,CHICAGO,IL,Fail,-87.64098857,41.88002352,20161005,Risk 2 (Medium),(41.88002352164489 -87.6409885748007),1938957,Restaurant,117 S CLINTON ST ,Short Form Complaint,DUNKIN DONUTS,60661
LA CROSTA WOODFIRE  PIZZERIA ITALIANA,1965926,CHICAGO,IL,Pass,-87.6481984,41.9248928,20161005,Risk 3 (Low),(41.924892803987134 -87.6481983972586),2446749,Restaurant,2360 N LINCOLN AVE ,License Re-Inspection,LA CROSTA WOODFIRE PIZZERIA ITALIANA,60614
TEAVANA #28346,1965922,CHICAGO,IL,Fail,-87.62396132,41.89774086,20161005,Risk 3 (Low),(41.897740856252504 -87.62396131598219),2469710,Restaurant,835 N MICHIGAN AVE ,License,TEAVANA #28346,60611
empty,1965644,CHICAGO,IL,Out of Business,-87.61556531,41.78034997,20160930,Risk 1 (High),(41.78034996694072 -87.61556531286772),2398173,Restaurant,400 E 63RD ST ,Canvass,CHARLES FAST FOOD,60637
U OF C  WOODLAWN,1965924,CHICAGO,IL,Pass,-87.59815597,41.77812652,20161005,Risk 1 (High),(41.77812651765076 -87.5981559679154),3240700,School,6420 S University (1132E) ,Canvass Re-Inspection,U OF C  WOODLAWN,60637
ALDEN LAKELAND NURSING HOME,1965929,CHICAGO,IL,Pass w/ Conditions,-87.65110161,41.96924936,20161005,Risk 1 (High),(41.96924936435865 -87.65110161256266),2204175,Long Term Care,820 W LAWRENCE AVE ,Canvass,LAKELAND INC,60640
STARBUCKS (T2 LL ARRIVAL),1965914,CHICAGO,IL,Pass,-87.91442844,42.0085364,20161005,Risk 2 (Medium),(42.008536400868735 -87.91442843927047),2032399,Restaurant,11601 W TOUHY AVE ,Canvass,HOST INTERNATIONAL INC,60666
SEADOG,1965915,CHICAGO,IL,Pass,-87.66510269,41.90348137,20161005,Risk 1 (High),(41.90348136734626 -87.66510268565547),2068861,Restaurant,1500 W DIVISION ST ,Complaint,SEADOG SUSHI BAR,60642
TAXIMAROA BAKERY,1965907,CHICAGO,IL,Pass,-87.72781333,41.96835476,20161005,Risk 2 (Medium),(41.96835475685038 -87.72781332599324),1445167,Bakery,3954 W LAWRENCE AVE ,Complaint Re-Inspection,TAXIMAROA BAKERY,60625
empty,1965908,CHICAGO,IL,Pass,-87.64834189,41.91770608,20161005,Risk 3 (Low),(41.917706084219844 -87.64834188710937),2469268,Restaurant,1961 N HALSTED ST ,License Re-Inspection,J9 WINE BAR,60614
STARBUCKS COFFEE (T1-B14),1965858,CHICAGO,IL,Pass,-87.91442844,42.0085364,20161004,Risk 2 (Medium),(42.008536400868735 -87.91442843927047),34217,Restaurant,11601 W TOUHY AVE ,Canvass,HOST INTERNATIONAL INC,60666
empty,1965906,CHICAGO,IL,Pass,-87.64834189,41.91770608,20161005,Risk 2 (Medium),(41.917706084219844 -87.64834188710937),2469269,Restaurant,1961 N HALSTED ST ,License Re-Inspection,J9 WINE BAR,60614
THE EASTMAN EGG COMPANY,1965904,CHICAGO,IL,Pass,-87.63663756,41.88270035,20161005,Risk 2 (Medium),(41.88270035458986 -87.63663755997726),2333405,Restaurant,29 N WACKER DR ,Complaint Re-Inspection,THE EASTMAN EGG COMPANY,60606
THE NICHOLSON SCHOOL,1965897,CHICAGO,IL,Pass,-87.67034138,41.91618227,20161005,Risk 1 (High),(41.91618227133264 -87.6703413842735),2333358,Daycare (2 - 6 Years),1700 W CORTLAND ST ,License,THE NICHOLSON SCHOOL,60622
FLAGSHIP TAVERN & GRILL,1965896,CHICAGO,IL,Fail,-87.66961665,41.93979302,20161004,Risk 1 (High),(41.93979302024049 -87.66961664829614),2231808,Restaurant,1622 W BELMONT AVE ,Complaint,FLAGSHIP TAVERN & GRILL,60657
ROJO GUSANO,1965895,CHICAGO,IL,Pass,-87.72444786,41.96839043,20161004,Risk 3 (Low),(41.968390431264375 -87.72444785924317),2487475,Restaurant,3830 W LAWRENCE AVE ,License,ROJO GUSANO,60625
JAMAICAN ME HUNGRY,1965891,CHICAGO,IL,Not Ready,-87.66325181,41.74862471,20161004,Risk 1 (High),(41.74862470541784 -87.66325181074512),2484104,Restaurant,7959 S ASHLAND AVE ,License,JAMAICAN ME HUNGRY,60620
POPEYE'S,1965892,CHICAGO,IL,Pass,-87.60574753,41.80965253,20161004,Risk 2 (Medium),(41.80965253314558 -87.60574752734975),1963622,Restaurant,818 E 47TH ST ,Complaint,POPEYE'S FRIED CHICKEN,60653
ROJO GUSANO,1965893,CHICAGO,IL,Pass,-87.72444786,41.96839043,20161004,Risk 1 (High),(41.968390431264375 -87.72444785924317),1305286,Restaurant,3830 W LAWRENCE AVE ,Canvass Re-Inspection,ROJO GUSANO,60625
LOWCOUNTRY,1965886,CHICAGO,IL,Pass,-87.6528628,41.94286932,20161004,Risk 1 (High),(41.942869318828365 -87.65286280377227),1042664,Restaurant,3343 N CLARK ST ,Complaint Re-Inspection,LOWCOUNTRY,60657
MONTESSORI MAGPIE,1965884,CHICAGO,IL,Pass,-87.66717396,41.89713189,20161004,Risk 1 (High),(41.89713189353226 -87.66717395751905),2398408,Children's Services Facility,835 N ASHLAND AVE ,License Re-Inspection,MONTESSORI MAGPIE,60622
GOREE CUISINE LLC,1965887,CHICAGO,IL,Pass,-87.59816456,41.80973695,20161004,Risk 2 (Medium),(41.80973695200191 -87.59816456289613),2492251,Restaurant,1126 E 47TH ST ,License Re-Inspection,GOREE CUISINE LLC,60653
JACKSON PARK SLF LLC,1965881,CHICAGO,IL,Pass w/ Conditions,-87.58918947,41.75884822,20161004,Risk 1 (High),(41.75884821792363 -87.58918947319052),2475830,Long Term Care,1440-1448 E 75TH ST ,License,JACKSON PARK SLF LLC,60619
NATIVE FOODS CLARK STREET LLC,1965878,CHICAGO,IL,Pass,-87.63095049,41.87881482,20161004,Risk 1 (High),(41.87881482219489 -87.63095048621103),2283740,Restaurant,218 S CLARK ST ,Complaint,NATIVE FOODS CLARK STREET LLC,60604
BRO-N-LAWS BAR-B-Q,1965874,CHICAGO,IL,Pass,-87.72216982,41.895513,20161004,Risk 1 (High),(41.895512999951805 -87.72216981512152),2442895,Restaurant,3820 W CHICAGO AVE ,Complaint Re-Inspection,BRO-N-LAWS BAR-B-Q LLC,60651
HAROLD'S CHICKEN,1965871,CHICAGO,IL,Pass,-87.58634092,41.76094846,20161004,Risk 2 (Medium),(41.760948456691715 -87.58634092010269),2203524,Restaurant,7348 S STONY ISLAND AVE ,Short Form Complaint,HAROLD'S OF CHICAGO,60649
THE EMPANADA BIKE,1965876,CHICAGO,IL,Pass,-87.67710953,41.95203002,20161004,Risk 3 (Low),(41.952030017774646 -87.67710952822847),2476191,MOBILPREPARED FOOD VENDOR,3855 N LINCOLN AVE ,License Re-Inspection,THE EMPANADA BIKE,60613
TINY TAVERN,1965833,CHICAGO,IL,Pass,-87.61156988,41.89209414,20161004,Risk 1 (High),(41.892094136861786 -87.61156988394656),2451930,Restaurant,600 E GRAND AVE ,License,TINY TAVERN,60611
SKY CHOP SUEY INC,1965882,CHICAGO,IL,Pass,-87.70219239,41.73641424,20161004,Risk 1 (High),(41.7364142354004 -87.70219239358123),25159,Restaurant,8616 S KEDZIE AVE ,Complaint Re-Inspection,SKY CHOP SUEY INC,60652
PAPA JOHN'S PIZZA,1955270,CHICAGO,IL,Fail,-87.62389568,41.85297383,20161004,Risk 2 (Medium),(41.85297382613197 -87.6238956826966),2341071,Restaurant,80 E CERMAK RD ,Canvass,PAPA JOHN'S PIZZA,60616
THE ADMIRAL AT THE LAKE,1965875,CHICAGO,IL,Pass,-87.65368519,41.97630623,20161004,Risk 1 (High),(41.976306229211716 -87.65368519203012),2163661,Restaurant,929 W FOSTER AVE ,Canvass,THE ADMIRAL AT THE LAKE,60640
GROCERY BASKET,1965869,CHICAGO,IL,Pass,-87.61416259,41.70719854,20161004,Risk 2 (Medium),(41.70719854079396 -87.61416259374056),1677513,Grocery Store,351 E 103RD ST ,Complaint Re-Inspection,GROCERY BASKET,60628
DANISH GAS & FOOD MART INC.,1965868,CHICAGO,IL,Fail,-87.71048643,41.87352189,20161004,Risk 3 (Low),(41.8735218856565 -87.71048642868381),2363374,Grocery Store,3353-3359 W HARRISON ST ,Complaint,DANISH GAS & FOOD MART INC,60624
STARBUCKS (T1/B CONCOURSE-BAGGAGE CLAIM),1965861,CHICAGO,IL,Pass,-87.91442844,42.0085364,20161004,Risk 2 (Medium),(42.008536400868735 -87.91442843927047),34229,Restaurant,11601 W TOUHY AVE ,Canvass,Starbucks,60666
STANS DONUTS,1965831,CHICAGO,IL,Pass,-87.64508035,41.9328287,20161004,Risk 3 (Low),(41.9328286998427 -87.64508035101484),2483123,Mobile Food Dispenser,2800 N CLARK ST ,License,STANS DONUTS,60657
STARBUCKS COFFEE (T1-B5),1965857,CHICAGO,IL,Pass,-87.91442844,42.0085364,20161004,Risk 2 (Medium),(42.008536400868735 -87.91442843927047),34205,Restaurant,11601 W TOUHY AVE ,Canvass,STARBUCKS,60666
CARE-A-LOT INC,1965866,CHICAGO,IL,Pass,-87.7631935,41.99858912,20161004,Risk 1 (High),(41.99858912294531 -87.76319349986964),2216863,Daycare (2 - 6 Years),6441 N CENTRAL AVE ,License,CARE-A-LOT INC,60646
BURRITO BEACH,1965856,CHICAGO,IL,Pass,-87.63975868,41.88199434,20161004,Risk 1 (High),(41.88199433820508 -87.6397586848809),64874,Restaurant,500 W MADISON ST ,Complaint Re-Inspection,BURRITO BEACH,60661
STARBUCK'S (T1 B9),1965854,CHICAGO,IL,Pass,-87.91442844,42.0085364,20161004,Risk 2 (Medium),(42.008536400868735 -87.91442843927047),34215,Restaurant,11601 W TOUHY AVE ,Canvass,DELI/STARBUCK'S,60666
FOGO DE CHAO,1965865,CHICAGO,IL,Pass,-87.63251632,41.8941247,20161004,Risk 1 (High),(41.8941247035236 -87.63251632012691),1196816,Restaurant,661 N LA SALLE DR ,Complaint,FOGO DE CHAO CHURRASCARIA (CHICAGO) LLC,60654
GRAND PALACE,1965847,CHICAGO,IL,Pass,-87.63291566,41.84540497,20161004,Risk 1 (High),(41.84540496954724 -87.63291565704061),1679405,Restaurant,225 W 26TH ST ,Complaint Re-Inspection,GRAND PALACE,60616
KENTUCKY FRIED CHICKEN 521054,1965641,CHICAGO,IL,Out of Business,-87.62538927,41.79420061,20160930,Risk 1 (High),(41.794200609540425 -87.6253892681796),1816828,Restaurant,7 E GARFIELD BLVD ,Canvass,KENTUCKY FRIED CHICKEN 521054,60637
SKIDOE'S CAFE AND GRILL,1965849,CHICAGO,IL,Pass,-87.61963864,41.80193976,20161004,Risk 2 (Medium),(41.801939763334246 -87.61963863510046),2424039,Restaurant,235 E 51ST ST ,License Re-Inspection,SKIDOE'S CAFE AND GRILL,60615
BIG G'S PIZZA,1965844,CHICAGO,IL,Fail,-87.65550099,41.86954627,20161004,Risk 1 (High),(41.86954627058427 -87.65550098867566),2334691,Restaurant,1132 W TAYLOR ST ,Canvass Re-Inspection,BIG G'S PIZZA,60607
SKYBOX ON SHEFFIELD,1965842,CHICAGO,IL,Pass,-87.65420738,41.94806273,20161004,Risk 2 (Medium),(41.948062734364164 -87.65420737836818),2379723,ROOFTOP,3627 N SHEFFIELD AVE ,Canvass,SKYBOX ON SHEFFIELD,60613
JJ FISH & GROCERY,1965839,CHICAGO,IL,Fail,-87.69296412,41.76443109,20161004,Risk 2 (Medium),(41.764431087792644 -87.69296412238828),2341091,RESTAURANT/GROCERY STORE,2759 W 71ST ST ,Complaint Re-Inspection,JJ FISH & GROCERY INC.,60629
THE QUARRY EVENT CENTER,1965837,CHICAGO,IL,No Entry,-87.56565795,41.75888652,20161004,Risk 1 (High),(41.75888651800864 -87.56565795329745),2261711,Restaurant,2419-2425 E 75TH ST ,Complaint,THE QUARRY EVENT CENTER,60649
BETHLEHEM PITA & GRILL,1965836,CHICAGO,IL,Out of Business,-87.64985956,41.95377883,20161004,Risk 1 (High),(41.95377882546025 -87.64985955666889),2340257,Restaurant,3933 N BROADWAY ,Canvass,BETHLEHEM PITA & GRILL INC.,60613
MCDONALD'S #26364,1965835,CHICAGO,IL,Pass,-87.63468562,41.87799905,20161004,Risk 2 (Medium),(41.877999051113726 -87.63468561722485),1868073,Restaurant,233 W JACKSON BLVD ,Complaint Re-Inspection,MCDONALD'S #26364,60606
FAY'S FOOD & MEAT MARKET INC.,1965827,CHICAGO,IL,Pass,-87.76365751,41.90951058,20161004,Risk 2 (Medium),(41.90951058048227 -87.76365750623302),2009220,Grocery Store,5512 W NORTH AVE ,Short Form Complaint,FAY'S FOOD & MEAT MARKET INC.,60639
LAS ISLAS MARIAS,1965830,CHICAGO,IL,Pass w/ Conditions,-87.72158716,41.74385143,20161004,Risk 1 (High),(41.743851432265714 -87.7215871591554),2065455,Restaurant,8205-8209 S PULASKI RD ,Complaint,LAS ISLAS MARIAS,60652
KENTUCTY FRIED CHICKEN,1955269,CHICAGO,IL,Pass,-87.68420498,41.82651854,20161004,Risk 1 (High),(41.826518542923324 -87.68420498239537),2483758,Restaurant,3696 S ARCHER AVE ,Short Form Complaint,KENTUCKY FRIED CHICKEN,60609
SPECIAL KUDO,1965820,CHICAGO,IL,Pass,-87.64985956,41.95377883,20161004,Risk 1 (High),(41.95377882546025 -87.64985955666889),2492446,Restaurant,3933 N BROADWAY ,License,SPECIAL KUDO,60613
MA GONG & LA PO,1965816,CHICAGO,IL,Pass,-87.63185844,41.85250898,20161004,Risk 1 (High),(41.85250898151474 -87.63185843864964),2120933,Restaurant,2215 S WENTWORTH AVE ,Complaint Re-Inspection,MA GONG & LA PO,60616
THREE BROTHERS FOOD & LIQUOR,1966057,CHICAGO,IL,No Entry,-87.74603871,41.89872983,20161004,Risk 3 (Low),(41.89872983060618 -87.74603871315406),2069381,Grocery Store,1000 N CICERO AVE ,Short Form Complaint,THREE BROTHERS FOOD & LIQUOR,60651
MARIANO'S,1965810,CHICAGO,IL,Pass w/ Conditions,-87.65483978,41.97648167,20161004,Risk 1 (High),(41.976481667612425 -87.65483977716684),2307752,Grocery Store,5201 N SHERIDAN RD ,Complaint,MARIANO'S #8522,60640
JERRY'S,1965808,CHICAGO,IL,Pass,-87.66817124,41.98035904,20161004,Risk 1 (High),(41.980359035573265 -87.66817124313768),2134056,Restaurant,5419 N CLARK ST ,Complaint Re-Inspection,JERRY'S,60640
KERFOOT FOOD & LIQUOR,1965708,CHICAGO,IL,Pass,-87.63944186,41.74022641,20160930,Risk 3 (Low),(41.74022641115339 -87.63944186396674),2470351,Grocery Store,8462 S VINCENNES AVE ,License,KERFOOT FOOD & LIQUOR,60620
LA CROSTA WOODFIRE  PIZZERIA ITALIANA,1965809,CHICAGO,IL,Pass w/ Conditions,-87.6481984,41.9248928,20161004,Risk 3 (Low),(41.924892803987134 -87.6481983972586),2446749,Restaurant,2360 N LINCOLN AVE ,License,LA CROSTA WOODFIRE PIZZERIA ITALIANA,60614
MANNY'S GROCERY,1965805,CHICAGO,IL,Pass,-87.5759402,41.7562368,20161004,Risk 2 (Medium),(41.75623679739395 -87.57594020307613),2458497,Grocery Store,7627 S JEFFERY BLVD ,License Re-Inspection,MANNY'S GROCERY,60649
AVENIDA DEL SABOR,1965797,CHICAGO,IL,Pass,-87.77134438,41.93109487,20161004,Risk 1 (High),(41.931094868682656 -87.77134438272313),2488459,Restaurant,5805 W DIVERSEY AVE ,License,AVENIDA DEL SABOR,60639
WINGSTOP,1965791,CHICAGO,IL,Not Ready,-87.72771372,41.96223481,20161004,Risk 1 (High),(41.96223481162694 -87.72771371816451),2492663,empty,4445 N PULASKI RD ,License,WINGSTOP,60630
BIG & LITTLES RESTAURANT,1965788,CHICAGO,IL,Pass,-87.6699218,41.90541556,20161004,Risk 1 (High),(41.90541555770196 -87.66992180134335),2470420,Restaurant,1310 N MILWAUKEE AVE ,License,BIG & LITTLES RESTAURANT,60622
CHIPPER PRE-SCHOOL/KINDERGARTEN,1965790,CHICAGO,IL,Pass,-87.70207307,41.74355479,20161004,Risk 1 (High),(41.74355478944242 -87.70207306657721),2216082,Daycare Combo 1586,8225-8229 S KEDZIE ,Canvass,CHIPPER PRE-SCHOOL/KINDERGARTEN,60652
DUNKIN DONUTS INC,1965789,CHICAGO,IL,Pass,-87.66657161,41.96151732,20161004,Risk 2 (Medium),(41.96151731907338 -87.66657161086611),52210,Restaurant,1441 W MONTROSE AVE ,Short Form Complaint,DUNKIN DONUTS INC,60613
WHITE CASTLE #26,1965787,CHICAGO,IL,Fail,-87.74189535,41.77854419,20161004,Risk 2 (Medium),(41.778544187675465 -87.74189535416622),28488,Restaurant,4750 W 63RD ST ,Complaint Re-Inspection,WHITE CASTLE #26,60629
GAS EXPRESS INC,1955268,CHICAGO,IL,Pass,-87.6390328,41.83802904,20161004,Risk 2 (Medium),(41.83802903654782 -87.63903280269402),38466,GAS STATION/MINI MART,501 W 31ST ST ,Canvass,GAS EXPRESS INC,60616
MOUNTAIN TOP KIDS,1965782,empty,IL,Pass,-87.70734405,41.99753345,20161004,Risk 1 (High),(41.997533451669874 -87.70734404513873),2431887,Restaurant,3108 W DEVON ,License Re-Inspection,MOUNTAIN TOP KIDS,empty
PALETERIA ESTRELLA MICHOACANA,1965777,CHICAGO,IL,Pass,-87.69378808,41.85203288,20161004,Risk 1 (High),(41.85203288017801 -87.69378807557746),2492349,Restaurant,2716 W CERMAK RD ,License Re-Inspection,PALETERIA ESTRELLA MICHOACANA,60608
THE EASTMAN EGG COMPANY,1965776,CHICAGO,IL,Pass w/ Conditions,-87.63663756,41.88270035,20161004,Risk 2 (Medium),(41.88270035458986 -87.63663755997726),2333405,Restaurant,29 N WACKER DR ,Complaint,THE EASTMAN EGG COMPANY,60606
TKVD/KARLAS KITCHEN,1965785,CHICAGO,IL,Fail,-87.72518069,41.87031344,20161004,Risk 1 (High),(41.870313437951935 -87.72518069082456),2492560,Restaurant,819 S PULASKI RD ,License,TKVD/KARLAS KITCHEN,60624
LUNA FOOD MARKET INC.,1965775,CHICAGO,IL,Pass,-87.76404832,41.90950588,20161004,Risk 3 (Low),(41.90950587551232 -87.76404831827487),2488940,Grocery Store,5524 W North AVE ,License,LUNA FOOD MARKET INC.,60639
